[
  {
    "name": "9th of April Park in Vani",
    "region": "Imereti",
    "type": "NATURE",
    "lat": 42.096574,
    "lng": 42.505619,
    "image": "https://cdn.georgiantravelguide.com/storage/thumbnails/img-3421a-4.jpg",
    "description": "9th of April Park is located in the Imereti Region, Vani Municipality. There is a memorial to the victims of the April 9 tragedy in the park. On April 9, 1989,",
    "id": 1001
  },
  {
    "name": "Abanotubani",
    "region": "Tbilisi",
    "type": "CULTURE",
    "lat": 41.688628533110425,
    "lng": 44.81104850926005,
    "image": "https://cdn.georgiantravelguide.com/storage/thumbnails/dji-0193-4.jpg",
    "description": "Abanotubani, Baths District&nbsp; is&nbsp;one of the oldest districts of Tbilisi, the capital of Georgia, the river. On the right bank of the Mtkvari. The name",
    "id": 1002
  },
  {
    "name": "Abastumani",
    "region": "Samtskhe-Javakheti",
    "type": "CULTURE",
    "lat": 41.730741,
    "lng": 42.834074,
    "image": "https://cdn.georgiantravelguide.com/storage/thumbnails/img-3885-7.jpg",
    "description": "Abastumani “Tamari Castle” is located on the site of Samtskhe-Javakheti, in the municipality of Adigeni, in the lowland of Abastumani, near the merge of the riv",
    "id": 1003
  },
  {
    "name": "Abastumani - Lake Jaji - village Dertseli",
    "region": "Samtskhe-Javakheti",
    "type": "ACTIVITY",
    "lat": 41.75468055145521,
    "lng": 42.82168769300226,
    "image": "https://cdn.georgiantravelguide.com/storage/thumbnails/img-3195-4.jpg",
    "description": "Jaji Lake is located on the southern slope of the Meskheti Range at 2655 meters above sea level. The lake is at the crossroad of three municipalities: Chokhatau",
    "id": 1004
  },
  {
    "name": "Abelia Trinity Church",
    "region": "Kvemo Kartli",
    "type": "CULTURE",
    "lat": 41.57235071434371,
    "lng": 44.5005896964813,
    "image": "https://cdn.georgiantravelguide.com/storage/thumbnails/img-0708-4.jpg",
    "description": "Abelia Trinity Church is located near to Abeliani village, Tetritskaro municipality, Kvemo Kartli region.  It is an important historical monument and very uniqu",
    "id": 1005
  },
  {
    "name": "Abhesi Basin",
    "region": "Samegrelo",
    "type": "NATURE",
    "lat": 42.453734,
    "lng": 42.373641,
    "image": "https://cdn.georgiantravelguide.com/storage/thumbnails/img-3154-4.jpg",
    "description": "Abhesi Basin - A basin on the Abasha hydroelectric power station, located in Martvili Municipality, Samegrelo Region, near the Martvili Canyon, in the Abashists",
    "id": 1006
  },
  {
    "name": "Abrskili Cave",
    "region": "Abkhazia",
    "type": "NATURE",
    "lat": null,
    "lng": null,
    "image": "https://georgiantravelguide.com/img/default-image-1.svg",
    "description": "The Abrskili cave is located in Abkhazia, Ochamchire Municipality, in the Mokvi river basin, in the southern foothills of the Kodori ridge, at 260 meters above",
    "id": 1007
  },
  {
    "name": "Abudelauri Colorful Lakes",
    "region": "Mtskheta-Mtianeti",
    "type": "ACTIVITY",
    "lat": 42.52740078323271,
    "lng": 44.93627071380616,
    "image": "https://cdn.georgiantravelguide.com/storage/thumbnails/img-3762-4.jpg",
    "description": "Colorful lakes of Abudelauri are located at the head of the gorge of the river Abudelauri in Khevsureti at 2600 meters above sea level.\r\n\r\nLake Abudelauri inclu",
    "id": 1008
  },
  {
    "name": "Abuli Fortress",
    "region": "Samtskhe-Javakheti",
    "type": "CULTURE",
    "lat": 41.372863,
    "lng": 43.685018,
    "image": "https://cdn.georgiantravelguide.com/storage/thumbnails/dsc-1507-4.jpg",
    "description": "Abuli Fortress is located in Samtskhe-Javakheti, in the municipality of Ninotsminda, near the village Gandza, on the mountain of Small Abuli, 2670 meters fro",
    "id": 1009
  },
  {
    "name": "Achili Monastery",
    "region": "Mtskheta-Mtianeti",
    "type": "CULTURE",
    "lat": 41.96191,
    "lng": 44.87972,
    "image": "https://cdn.georgiantravelguide.com/storage/thumbnails/dsc-0237-14.jpg",
    "description": "Archili Monastery is located in the Mtskheta-Mtianeti region, in the Tianeti Municipality, near the village of Nadokra. It includes several buildings from diffe",
    "id": 1010
  },
  {
    "name": "Aia Constantine’s Church of Tejisi",
    "region": "Kvemo Kartli",
    "type": "CULTURE",
    "lat": 41.691939,
    "lng": 44.088554,
    "image": "https://cdn.georgiantravelguide.com/storage/thumbnails/img-0924a-4.jpg",
    "description": "Aia Constantine’s Church of Tejisi is located in the village of Tejisi, Tsalka Municipality, Kvemo Kartli region. It is a medieval hall church with a megalithic",
    "id": 1011
  },
  {
    "name": "Ajameti Managed Reserve",
    "region": "Imereti",
    "type": "NATURE",
    "lat": 42.164276406532124,
    "lng": 42.73985892118617,
    "image": "https://georgiantravelguide.com/img/default-image-1.svg",
    "description": "Ajameti Managed Reserve is located 230 km away from Tbilisi and 15 km away from Kutaisi in the districts of Baghdati and Zestaponi. The reserve is in the flatla",
    "id": 1012
  },
  {
    "name": "Akaurta Saint Mary Church",
    "region": "Kvemo Kartli",
    "type": "CULTURE",
    "lat": 41.465590857911224,
    "lng": 44.442340883903256,
    "image": "https://cdn.georgiantravelguide.com/storage/thumbnails/dji-0631-4.jpg",
    "description": "Akaurta Church— V-VI სს.&nbsp; Virgin Mary Assumption church is located in Kvemo Kartli region, Bolnisi municipality, village Akaurta, 720 meters above sea leve",
    "id": 1013
  },
  {
    "name": "Akhaldaba (Tamari's) Fortress",
    "region": "Samtskhe-Javakheti",
    "type": "CULTURE",
    "lat": 41.923590429228355,
    "lng": 43.49266180945597,
    "image": "https://cdn.georgiantravelguide.com/storage/thumbnails/dji-0401-9.jpg",
    "description": "LocationAkhaldaba Fortress same as Tamari Fortress is located in Borjomi municipality, in the center of Daba Akhaldaba, on the right bank of the Mtkvari River,",
    "id": 1014
  },
  {
    "name": "Akhali Atoni Cave",
    "region": "Abkhazia",
    "type": "NATURE",
    "lat": 43.09065,
    "lng": 40.810008,
    "image": "https://georgiantravelguide.com/img/default-image-1.svg",
    "description": "Akhali Atoni Cave is situated in Abkhazia, in the municipality of Gudauta, on the territory of Akhali Atoni, 220 meters from sea level (unfortunately, nowadays,",
    "id": 1015
  },
  {
    "name": "Akhalkalaki Fortress",
    "region": "Samtskhe-Javakheti",
    "type": "CULTURE",
    "lat": 41.415292,
    "lng": 43.480799,
    "image": "https://cdn.georgiantravelguide.com/storage/thumbnails/dji-0066-4.jpg",
    "description": "Akhalkalaki fortress is located in the Samtskhe-Javakheti region, Akhalkalaki Municipality. It dates back to the 11th century. The complex includes a citadel, t",
    "id": 1016
  },
  {
    "name": "Akhalsopeli St. George Church",
    "region": "Kvemo Kartli",
    "type": "CULTURE",
    "lat": 41.653015,
    "lng": 44.343243,
    "image": "https://cdn.georgiantravelguide.com/storage/thumbnails/bzis-akhalsoflis-tsm-giorgis-ek-24.jpg",
    "description": "St. George's Church is located in the village of Akhalsopeli, Tetritskaro Municipality, Kvemo Kartli Region. It is a monument of the X-XI centuries. The buildin",
    "id": 1017
  },
  {
    "name": "Akhalsopeli Virgin Mary’s Church",
    "region": "Kvemo Kartli",
    "type": "CULTURE",
    "lat": 41.651558,
    "lng": 44.339869,
    "image": "https://cdn.georgiantravelguide.com/storage/thumbnails/img-1325-14.jpg",
    "description": "Akhalsopeli Virgin Mary’s Church is located in Akhalsopeli village, Tetritskaro Municipality, Kvemo Kartli region. It dates back to the IX-X centuries. The chur",
    "id": 1018
  },
  {
    "name": "Akhpati Monastery",
    "region": "Georgia",
    "type": "CULTURE",
    "lat": 41.093827998636,
    "lng": 44.711968882463,
    "image": "https://cdn.georgiantravelguide.com/storage/thumbnails/dsc-0279-14.jpg",
    "description": "Akhpati Monastery is located in the village of Akhpati, Lore province, in the Republic of Armenia.The complex was built in the 10th-13th centuries. It is surrou",
    "id": 1019
  },
  {
    "name": "Akhtala Monastery",
    "region": "Georgia",
    "type": "CULTURE",
    "lat": 41.150645765225,
    "lng": 44.764555711177,
    "image": "https://cdn.georgiantravelguide.com/storage/thumbnails/dsc-0230-19.jpg",
    "description": "The Akhtala Monastery is located in the city of Akhtala, Lore province, in the Republic of Armenia.Its history begins in the 10th century. The complex consists",
    "id": 1020
  },
  {
    "name": "Alagi",
    "region": "Mtskheta-Mtianeti",
    "type": "ACCOMMODATION",
    "lat": 42.047597260881,
    "lng": 44.672712831151,
    "image": "https://cdn.georgiantravelguide.com/storage/thumbnails/271393266-219919153670857-699377-4.jpg",
    "description": "Cottage Alagi is located on the bank of Bazaleti Lake, near Tbilisi.The cottage can accommodate ten people.Here you will find everything for your cozy vacation.",
    "id": 1021
  },
  {
    "name": "Alaverdi",
    "region": "Kakheti",
    "type": "CULTURE",
    "lat": 42.03246171455412,
    "lng": 45.37716734771573,
    "image": "https://cdn.georgiantravelguide.com/storage/thumbnails/dji-0906-1-4.jpg",
    "description": "Alaverdi - Cathedral and Monastery is located in the Kakheti region of Akhmeta municipality, on Alazani valley, near the village of Alaverdi, 20 km from Telavi.",
    "id": 1022
  },
  {
    "name": "Algeti National Park",
    "region": "Kvemo Kartli",
    "type": "NATURE",
    "lat": 41.719580851382446,
    "lng": 44.30388407977374,
    "image": "https://cdn.georgiantravelguide.com/storage/thumbnails/img-1035-4.jpg",
    "description": "Algeti National Park - National Park in Eastern Georgia. It is located in historic Kvemo Kartli, in Tetritskaro municipality. It is situated in the valley of th",
    "id": 1023
  },
  {
    "name": "Algeti Reservoir",
    "region": "Kvemo Kartli",
    "type": "NATURE",
    "lat": 41.588727481201246,
    "lng": 44.52320507407404,
    "image": "https://cdn.georgiantravelguide.com/storage/thumbnails/img-0725-4.jpg",
    "description": "Algeti Reservoir - Reservoir on the Algeti River. It is located in Tetritskaro municipality of Kvemo Kartli, in the vicinity of Tbisi village, 55 km away from T",
    "id": 1024
  },
  {
    "name": "Amamlo Church of Tamar",
    "region": "Kvemo Kartli",
    "type": "CULTURE",
    "lat": 41.275833,
    "lng": 44.245833,
    "image": "https://georgiantravelguide.com/img/default-image-1.svg",
    "description": "Amamlo Church of Tamar is located  in Kvemo Kartli region, Dmanisi municipality, near the village of Amamlo. It is a monument of the XII century. The building i",
    "id": 1025
  },
  {
    "name": "Amlivi (Amlevi) complex",
    "region": "Kvemo Kartli",
    "type": "CULTURE",
    "lat": 41.60882169545065,
    "lng": 44.520682783931775,
    "image": "https://cdn.georgiantravelguide.com/storage/thumbnails/dji-0391-4.jpg",
    "description": "Amlivi (Amlevi) complex is located in Kvemo Kartli region, in Tetritskaro municipality, in Orbeti community, on the left side of the Algeti river, 1090 meters a",
    "id": 1026
  },
  {
    "name": "Ananuri",
    "region": "Mtskheta-Mtianeti",
    "type": "CULTURE",
    "lat": 42.16383498522098,
    "lng": 44.70308652607605,
    "image": "https://cdn.georgiantravelguide.com/storage/thumbnails/dji-0867-4.jpg",
    "description": "Ananuri Fortress Complex - a fortress of the feudal era (XVI-XVIII centuries) near the village of Ananuri. It is located in eastern Georgia, in Dusheti municipa",
    "id": 1027
  },
  {
    "name": "Anchiskhati Cathedral",
    "region": "Tbilisi",
    "type": "CULTURE",
    "lat": 41.695492,
    "lng": 44.80676,
    "image": "https://cdn.georgiantravelguide.com/storage/thumbnails/img-4293-2-4.jpg",
    "description": "Anchiskhati Cathedral is located at Ioane Shavteli Street in the old part of Tbilisi. It is a three-nave basilica dating back to the 6th century and is the olde",
    "id": 1028
  },
  {
    "name": "Antioch Church",
    "region": "Mtskheta-Mtianeti",
    "type": "CULTURE",
    "lat": 41.84129,
    "lng": 44.72447,
    "image": "https://georgiantravelguide.com/img/default-image-1.svg",
    "description": "Antioch Church (St. Stephen Church of Mtskheta) is located in the Mtskheta-Mtianeti region, in the city of Mtskheta, Mtskheta Municipality. It dates back to the",
    "id": 1029
  },
  {
    "name": "Ardagani Lake",
    "region": "Adjara",
    "type": "NATURE",
    "lat": 41.641801651235035,
    "lng": 41.6140849433442,
    "image": "https://cdn.georgiantravelguide.com/storage/thumbnails/dji-0606-4.jpg",
    "description": "Ardagani Lake - located in Batumi, on the Black Sea coast, on the territory of New Boulevard.Ardagani Lake has a fountain of a French music dancer. The fountain",
    "id": 1030
  },
  {
    "name": "Armazi Fortress",
    "region": "Georgia",
    "type": "CULTURE",
    "lat": 41.826737,
    "lng": 44.679001,
    "image": "https://cdn.georgiantravelguide.com/storage/thumbnails/dsc-0073-34.jpg",
    "description": "N/A",
    "id": 1031
  },
  {
    "name": "Armazi Virgin Mary Monastery Complex",
    "region": "Mtskheta-Mtianeti",
    "type": "CULTURE",
    "lat": 41.833029590515686,
    "lng": 44.680498933411094,
    "image": "https://cdn.georgiantravelguide.com/storage/thumbnails/monasteri-4.jpg",
    "description": "Armazi Virgin Mary Monastery Complex - a monument of old Georgian architecture, on the right bank of the river Armazistskali, in Mtskheta municipality, 5 km fro",
    "id": 1032
  },
  {
    "name": "Armaztsikhe (Bagineti)",
    "region": "Mtskheta-Mtianeti",
    "type": "CULTURE",
    "lat": 41.837305,
    "lng": 44.72177,
    "image": "https://cdn.georgiantravelguide.com/storage/thumbnails/img-8839a1aaa-14.jpg",
    "description": "Armaztsikhe (Bagineti) is the inner fortress of old Mtskheta. Historical sources attribute the construction of Armaztsikhe to Kartlos - the relative of the Geor",
    "id": 1033
  },
  {
    "name": "Arsha Waterfall",
    "region": "Mtskheta-Mtianeti",
    "type": "NATURE",
    "lat": 42.63184332000187,
    "lng": 44.59281921386719,
    "image": "https://cdn.georgiantravelguide.com/storage/thumbnails/dji-0154a-4.jpg",
    "description": "Arshi Waterfall is located in Kazbegi, in the village of Arsha. The village Arsha is 5 m away from Kazbegi. The way from the village to the waterfall is just 2",
    "id": 1034
  },
  {
    "name": "Art House Gori",
    "region": "Shida Kartli",
    "type": "CULTURE",
    "lat": 41.986779906795,
    "lng": 44.105464918626,
    "image": "https://cdn.georgiantravelguide.com/storage/thumbnails/175348668-1163825907371174-11336-4.jpg",
    "description": "Art House Gori\r\nThe Art house opened  in 2020 by Gori Photographers Club members. Series of educational projects and exhibitions have been implemented, with the",
    "id": 1035
  },
  {
    "name": "Astronomical Clock",
    "region": "Adjara",
    "type": "URBAN_EXPLORER",
    "lat": 41.6511221332378,
    "lng": 41.63749451077161,
    "image": "https://cdn.georgiantravelguide.com/storage/thumbnails/img-0564-4.jpg",
    "description": "Astronomical Clock - Architectural attraction in Old Batumi, located on the reconstructed tower of the National Bank of Georgia.“Astronomical Clock” equipped wi",
    "id": 1036
  },
  {
    "name": "Atchi Church",
    "region": "Guria",
    "type": "CULTURE",
    "lat": 41.84734,
    "lng": 42.005438,
    "image": "https://cdn.georgiantravelguide.com/storage/thumbnails/dji-0943-9.jpg",
    "description": "St. George Church of Atchi is located in the village of Atchi, Ozurgeti Municipality, Guria. It dates back to the 13th century. Historical information about the",
    "id": 1037
  },
  {
    "name": "Ateni Archangel Church (“Giorgoba” of Ateni)",
    "region": "Shida Kartli",
    "type": "CULTURE",
    "lat": 41.923492,
    "lng": 44.104372,
    "image": "https://cdn.georgiantravelguide.com/storage/thumbnails/dji-0637-14.jpg",
    "description": "Ateni Archangel Church (same as “Giorgoba” of Ateni) is located in Shida Kartli Region, Gori Municipality, in the village of Patara Ateni. It is erected on a ro",
    "id": 1038
  },
  {
    "name": "Ateni Fortress",
    "region": "Shida Kartli",
    "type": "CULTURE",
    "lat": 41.9149787,
    "lng": 44.0922853,
    "image": "https://cdn.georgiantravelguide.com/storage/thumbnails/dsc-0387-19.jpg",
    "description": "Ateni Fortress is located in Shida Kartli region, Gori Municipality, Ateni Gorge, on the left bank of the river Tana, on the overhang of high mountain. Satsivis",
    "id": 1039
  },
  {
    "name": "Ateni sioni church",
    "region": "Shida Kartli",
    "type": "CULTURE",
    "lat": 41.90393178823571,
    "lng": 44.095972180366516,
    "image": "https://cdn.georgiantravelguide.com/storage/thumbnails/dji-0586-19.jpg",
    "description": "",
    "id": 1040
  },
  {
    "name": "Ateshgah",
    "region": "Tbilisi",
    "type": "CULTURE",
    "lat": 41.68875221161946,
    "lng": 44.80573059227968,
    "image": "https://georgiantravelguide.com/img/default-image-1.svg",
    "description": "Ateshgah is an ancient fire temple located at Gomi Street in Kldisubani, Tbilisi. It is one of the most important and interesting monuments of the city. The tem",
    "id": 1041
  },
  {
    "name": "Atskuri Fortress",
    "region": "Samtskhe-Javakheti",
    "type": "CULTURE",
    "lat": 41.728225,
    "lng": 43.165788,
    "image": "https://cdn.georgiantravelguide.com/storage/thumbnails/dsc-0997-4.jpg",
    "description": "Atskuri fortress is located in the Samtskhe-Javakheti region, in the Akhaltsikhe Municipality, near the village of Atskuri. It is first mentioned in historical",
    "id": 1042
  },
  {
    "name": "Avlabari",
    "region": "Tbilisi",
    "type": "OTHER",
    "lat": 41.692541,
    "lng": 44.815052,
    "image": "https://cdn.georgiantravelguide.com/storage/thumbnails/riqis-parki-tbilisoba-4.jpg",
    "description": "Avlabari is one of the oldest districts of Tbilisi. It is located on the left bank of the Mtkvari River - between Rike, Chugureti, Elijah and Navtlugi. You can",
    "id": 1043
  },
  {
    "name": "Avlevi Fortress",
    "region": "Kvemo Kartli",
    "type": "CULTURE",
    "lat": 41.60916050840441,
    "lng": 44.5202265076724,
    "image": "https://cdn.georgiantravelguide.com/storage/thumbnails/img-7362-4.jpg",
    "description": "Avlevi Fortress is XV-XVI centuries fortress, which is located in Kvemo Kartli, in Tetritskaro municipality, in the Orbeti community, on the left side of the Al",
    "id": 1044
  },
  {
    "name": "Avranlo Megalithic Fortress",
    "region": "Kvemo Kartli",
    "type": "CULTURE",
    "lat": 41.66264,
    "lng": 43.883848,
    "image": "https://georgiantravelguide.com/img/default-image-1.svg",
    "description": "Avranlo Megalithic Fortress is located in the village of Avranlo, Tsalka Municipality, Kvemo Kartli region. It dates back to the first millennium BC. The fortre",
    "id": 1045
  },
  {
    "name": "Babushera Tower",
    "region": "Abkhazia",
    "type": "CULTURE",
    "lat": null,
    "lng": null,
    "image": "https://georgiantravelguide.com/img/default-image-1.svg",
    "description": "Babushera Tower is located in the village of Babushera, Gulripshi Municipality, Abkhazia. The territory of Abkhazia is currently occupied by Russia. It dates ba",
    "id": 1046
  },
  {
    "name": "Bagrati Cathedral",
    "region": "Imereti",
    "type": "CULTURE",
    "lat": 42.27723733003859,
    "lng": 42.70429730415344,
    "image": "https://cdn.georgiantravelguide.com/storage/thumbnails/imereti-bagratis-tadzari-4.jpg",
    "description": "Bagrati Cathedral is located in Kutaisi, Imereti region, on Ukimerioni hill. It was built in 1003, during the reign of Bagrat III. Bagrati Temple is an importan",
    "id": 1047
  },
  {
    "name": "Baiebi",
    "region": "Samtskhe-Javakheti",
    "type": "CULTURE",
    "lat": 41.567598,
    "lng": 43.048988,
    "image": "https://georgiantravelguide.com/img/default-image-1.svg",
    "description": "Baiebi is a rock-cut complex located in the Samtskhe-Javakheti region, Akhaltsikhe Municipality, near the village of Ttskordza. The complex dates back to the XI",
    "id": 1048
  },
  {
    "name": "Bako Waterfalls",
    "region": "Adjara",
    "type": "NATURE",
    "lat": 41.519245,
    "lng": 42.533967,
    "image": "https://cdn.georgiantravelguide.com/storage/thumbnails/dji-078411-4.jpg",
    "description": "Bako Waterfalls are located in Achara, in the municipality of Khulo, near the village Bakibako. In the heart of the river ravine, in the greeny surroundings, fl",
    "id": 1049
  },
  {
    "name": "Balda Canyon",
    "region": "Samegrelo",
    "type": "NATURE",
    "lat": 42.488663,
    "lng": 42.409656,
    "image": "https://cdn.georgiantravelguide.com/storage/thumbnails/dji-550219-2-4.jpg",
    "description": "Balda Canyon - the natural monument is located in the sight of Samegrelo, in the municipality of Martvili, in the village of Segond Baldi, near the river Abasha",
    "id": 1050
  },
  {
    "name": "Banguriani",
    "region": "Svaneti",
    "type": "NATURE",
    "lat": 43.099909967946104,
    "lng": 42.80906333668705,
    "image": "https://cdn.georgiantravelguide.com/storage/thumbnails/gopr0671-4.jpg",
    "description": "Banguriani- the mountain in Georgia, in Samegrelo-Zemo Svaneti region, Mestia municipality. It is located on the southern slope of the Caucasus Mountains, on th",
    "id": 1051
  },
  {
    "name": "Baraleti church",
    "region": "Samtskhe-Javakheti",
    "type": "CULTURE",
    "lat": 41.541839,
    "lng": 43.508304,
    "image": "https://georgiantravelguide.com/img/default-image-1.svg",
    "description": "Baraleti church&nbsp;is located in the&nbsp;Samtskhe - Javakheti&nbsp;region, in&nbsp;Akhalkalaki&nbsp;Municipality, in&nbsp;Baraleti&nbsp;village. It is a two-",
    "id": 1052
  },
  {
    "name": "Bareti Lake",
    "region": "Kvemo Kartli",
    "type": "NATURE",
    "lat": 41.66226843806176,
    "lng": 44.176994913691516,
    "image": "https://cdn.georgiantravelguide.com/storage/thumbnails/img-1399-9.jpg",
    "description": "Lake Bareti is located in the village of Bareti, Tsalka Municipality, Kvemo Kartli Region, at 1,612 meters above sea level. Its mirror area is 1.24 km. The lake",
    "id": 1053
  },
  {
    "name": "Bateti Lake",
    "region": "Shida Kartli",
    "type": "NATURE",
    "lat": 41.896197271156375,
    "lng": 43.767906076835516,
    "image": "https://cdn.georgiantravelguide.com/storage/thumbnails/dji-01335-4.jpg",
    "description": "Bateti Lake is located in Shida Kartli region, Kareli municipality, Dzami gorge, at 1313 meters above sea level. There are many lakes in Georgia. Among them, on",
    "id": 1054
  },
  {
    "name": "Batumi Archaeological Museum",
    "region": "Adjara",
    "type": "CULTURE",
    "lat": 41.643149,
    "lng": 41.632194,
    "image": "https://cdn.georgiantravelguide.com/storage/thumbnails/img-4615-4.jpg",
    "description": "Batumi Archaeological Museum is located in Adjara, Batumi, at 77 Chavchavadze Street. It was founded in 1994 and is one of the most important scientific, educat",
    "id": 1055
  },
  {
    "name": "Batumi Botanical Garden",
    "region": "Adjara",
    "type": "NATURE",
    "lat": 41.697320690361444,
    "lng": 41.718807695241054,
    "image": "https://cdn.georgiantravelguide.com/storage/thumbnails/dji-0629-9.jpg",
    "description": "Batumi Botanical Garden - Botanical Garden in Adjara, 9 km far from the city Batumi, on the coastline between the Green Cape and the River Chaqvistskali mouth.",
    "id": 1056
  },
  {
    "name": "Batumi Boulevard",
    "region": "Adjara",
    "type": "NATURE",
    "lat": 41.655005802518296,
    "lng": 41.63451161128403,
    "image": "https://cdn.georgiantravelguide.com/storage/thumbnails/img-9958-4.jpg",
    "description": "Batumi Boulevard - Seaside Amusement Park, located in Batumi, Adjara region. The boulevard is located in the historic part of the city, along the seaside. Its l",
    "id": 1057
  },
  {
    "name": "Batumi Central Park (May 6 Park)",
    "region": "Adjara",
    "type": "NATURE",
    "lat": 41.648002,
    "lng": 41.628561,
    "image": "https://cdn.georgiantravelguide.com/storage/thumbnails/img-5729-4.jpg",
    "description": "Batumi Central Park (May 6 Park) is located in Adjara, Batumi. It is the first civil garden in Batumi. Construction of the park began in 1881, in the south-east",
    "id": 1058
  },
  {
    "name": "Batumi Contact Zoo",
    "region": "Adjara",
    "type": "URBAN_EXPLORER",
    "lat": 41.643349,
    "lng": 41.619738,
    "image": "https://cdn.georgiantravelguide.com/storage/thumbnails/img-4596-9.jpg",
    "description": "Batumi Contact Zoo - Zootopia is located in Adjara, Batumi, at 88 Gorgiladze Street, on the 4th floor of Batumi Mall. The contact zoo is one of the best places",
    "id": 1059
  },
  {
    "name": "Batumi Europe Square",
    "region": "Adjara",
    "type": "NATURE",
    "lat": 41.651054,
    "lng": 41.63611,
    "image": "https://cdn.georgiantravelguide.com/storage/thumbnails/img-0036-4.jpg",
    "description": "Batumi Europe Square is located on Memed Abashidze Avenue in Adjara, Batumi. It is also called Era Square. The square, surrounded by XIX-XX century architecture",
    "id": 1060
  },
  {
    "name": "Batumi Ilia Chavchavadze Museum",
    "region": "Adjara",
    "type": "CULTURE",
    "lat": 41.645493,
    "lng": 41.621962,
    "image": "https://cdn.georgiantravelguide.com/storage/thumbnails/img-4600-4.jpg",
    "description": "Ilia Chavchavadze Museum is located in Adjara, Batumi, at 5 Griboedov Street. The museum presents photos and documentary materials, paintings and sculptural wor",
    "id": 1061
  },
  {
    "name": "Batumi Lighthouse",
    "region": "Adjara",
    "type": "URBAN_EXPLORER",
    "lat": 41.65589,
    "lng": 41.64104,
    "image": "https://cdn.georgiantravelguide.com/storage/thumbnails/img-5753-4.jpg",
    "description": "Batumi Lighthouse is located in Adjara, in the city of Batumi. The first lighthouse was built here in 1863. It was a cast iron column on which a dioptric lamp w",
    "id": 1062
  },
  {
    "name": "Batumi Mosque",
    "region": "Adjara",
    "type": "URBAN_EXPLORER",
    "lat": 41.648611,
    "lng": 41.643807,
    "image": "https://cdn.georgiantravelguide.com/storage/thumbnails/img-5742-9.jpg",
    "description": "Batumi Mosque - Orta Jame is located in Adjara, Batumi, on Kutaisi Street. It is one of the oldest buildings in Batumi. It was built during the Ottoman rule in",
    "id": 1063
  },
  {
    "name": "Batumi Piazza",
    "region": "Adjara",
    "type": "URBAN_EXPLORER",
    "lat": 41.649606,
    "lng": 41.641141,
    "image": "https://cdn.georgiantravelguide.com/storage/thumbnails/img-0581-4.jpg",
    "description": "Batumi Piazza - a square with cafes and restaurants in Batumi, Adjara. It is distinguished by its artistic, mosaic and stained glass patterns. The square is sur",
    "id": 1064
  },
  {
    "name": "Bazaleti Lake",
    "region": "Mtskheta-Mtianeti",
    "type": "NATURE",
    "lat": 42.03807803749301,
    "lng": 44.67911467730676,
    "image": "https://cdn.georgiantravelguide.com/storage/thumbnails/dsc-0012-4.jpg",
    "description": "40 km away from Tbilisi one can discover volcanic origin Bazaleti lake, located on the Bazaleti plateau. This place is known not for only the beauty of the lake",
    "id": 1065
  },
  {
    "name": "Beach House",
    "region": "Mtskheta-Mtianeti",
    "type": "ACCOMMODATION",
    "lat": 41.986179849677,
    "lng": 45.013281666919,
    "image": "https://cdn.georgiantravelguide.com/storage/thumbnails/v-4.jpg",
    "description": "Beach House is located near the Sioni Reservoir. You can visit us in your car at any time.The cottage has 2 floors:On the 1st floor there are:Living room;Table",
    "id": 1066
  },
  {
    "name": "Bebris Tsikhe",
    "region": "Mtskheta-Mtianeti",
    "type": "CULTURE",
    "lat": 41.85549,
    "lng": 44.72269,
    "image": "https://cdn.georgiantravelguide.com/storage/thumbnails/dji-0299-4.jpg",
    "description": "Bebris Tsikhe Fortress is located in the Mtskheta-Mtianeti region, Mtskheta Municipality, in the city of Mtskheta. It is also known as Beltistsikhe. In the anci",
    "id": 1067
  },
  {
    "name": "Bedeni Giants Paving",
    "region": "Kvemo Kartli",
    "type": "NATURE",
    "lat": null,
    "lng": null,
    "image": "https://georgiantravelguide.com/img/default-image-1.svg",
    "description": "Bedeni Giants Paving is located on the side of Kvemo Kartli, in the municipality of Tetritskharo, near the village Oraga, 1600-1700 meters from sea level. Giant",
    "id": 1068
  },
  {
    "name": "Bedia Monastery",
    "region": "Abkhazia",
    "type": "CULTURE",
    "lat": 42.779334174888,
    "lng": 41.671365895819,
    "image": "https://georgiantravelguide.com/img/default-image-1.svg",
    "description": "Bedia Monastery is located in the village of Bedia, Ochamchire Municipality, Abkhazia. The territory of Abkhazia is currently occupied by Russia. According to t",
    "id": 1069
  },
  {
    "name": "Bediani Vardischala St. George Church",
    "region": "Kvemo Kartli",
    "type": "CULTURE",
    "lat": 41.541735,
    "lng": 44.249516,
    "image": "https://cdn.georgiantravelguide.com/storage/thumbnails/img-0955-4.jpg",
    "description": "Bediani Vardischala St. George Church is located in Bediani, Tsalka municipality, Kvemo Kartli region. It is a hall church, with annexes to the south and west.",
    "id": 1070
  },
  {
    "name": "Berdiki Fortress",
    "region": "Kvemo Kartli",
    "type": "CULTURE",
    "lat": 41.33066,
    "lng": 44.516842,
    "image": "https://cdn.georgiantravelguide.com/storage/thumbnails/dji-0576-4.jpg",
    "description": "Berdiki (Poladauri) Castle&nbsp;— historical castle which is located on a high rock hill, on the right bank of the river Bolnisistskali, near the village Polada",
    "id": 1071
  },
  {
    "name": "Berisaqdrebi church",
    "region": "Samtskhe-Javakheti",
    "type": "CULTURE",
    "lat": 41.863279,
    "lng": 43.451233,
    "image": "https://cdn.georgiantravelguide.com/storage/thumbnails/qvibisis-berisaqdrebis-eklesia-x-9.jpg",
    "description": "Berisaqdrebi church is a developed medieval monument. It is located in the Samtskhe-Javakheti region, in Borjomi municipality, 4 km east of Qvibisi village. Acc",
    "id": 1072
  },
  {
    "name": "Beshtasheni Waterfall",
    "region": "Kvemo Kartli",
    "type": "NATURE",
    "lat": null,
    "lng": null,
    "image": "https://cdn.georgiantravelguide.com/storage/thumbnails/img-0839a-4.jpg",
    "description": "Beshtasheni Waterfall is located in the village of Beshtasheni, Tsalka Municipality, Kvemo Kartli region. It is a small waterfall, but it is hidden in the green",
    "id": 1073
  },
  {
    "name": "Betania",
    "region": "Tbilisi",
    "type": "CULTURE",
    "lat": 41.69004113517755,
    "lng": 44.61144983768464,
    "image": "https://cdn.georgiantravelguide.com/storage/thumbnails/dsc0010-4-4.jpg",
    "description": "Betania&nbsp;is&nbsp; a cross-domed temple, a monument of Georgian architecture. It was built at the end of the XII-XIII centuries. The monastery is located nea",
    "id": 1074
  },
  {
    "name": "Betania-Kveseti",
    "region": "Tbilisi",
    "type": "ACTIVITY",
    "lat": null,
    "lng": null,
    "image": "https://cdn.georgiantravelguide.com/storage/thumbnails/ghmcghm-1-4.jpg",
    "description": "There are many interesting and beautiful places around Tbilisi, which you can visit for one day and have a great time, enjoy the lovely nature or simply take pl",
    "id": 1075
  },
  {
    "name": "Bethlehem Church",
    "region": "Mtskheta-Mtianeti",
    "type": "CULTURE",
    "lat": 42.68353,
    "lng": 44.530110000000036,
    "image": "https://cdn.georgiantravelguide.com/storage/thumbnails/img-4250-4.jpg",
    "description": "Bethlehem Church is located in Kazbegi Municipality, on the Mount Kazbek Route, near Bethlehem Hut. This is the highest church in Georgia - 3900 meters above se",
    "id": 1076
  },
  {
    "name": "Bethlehem Street",
    "region": "Tbilisi",
    "type": "OTHER",
    "lat": 41.68926,
    "lng": 44.807335,
    "image": "https://cdn.georgiantravelguide.com/storage/thumbnails/img-0962-4.jpg",
    "description": "Bethlehem Street is located in the old part of Tbilisi and is one of the most attractive tourist destinations in one of the cities. This street is especially fa",
    "id": 1077
  },
  {
    "name": "Big and Small Okrostskali Lake",
    "region": "Svaneti",
    "type": "ACTIVITY",
    "lat": 42.96005941521969,
    "lng": 42.19595331539009,
    "image": "https://cdn.georgiantravelguide.com/storage/thumbnails/dji-40935-2-4.jpg",
    "description": "Okrotskali Lakes (same as Okrostskali Lakes) - Big Okrotskali Lake and Patara Okrotskali Lake, located in Upper Svaneti, Mestia Municipality, on the border of S",
    "id": 1078
  },
  {
    "name": "Biisi Waterfall",
    "region": "Shida Kartli",
    "type": "NATURE",
    "lat": 41.85731190024997,
    "lng": 43.979536616349634,
    "image": "https://cdn.georgiantravelguide.com/storage/thumbnails/img-20210202-121809-4.jpg",
    "description": "Biisi Waterfall is located in Shida Kartli, Gori Municipality, near the village of Biisi, Tana Gorge, at 1080 meters above sea level. The beautiful waterfall an",
    "id": 1079
  },
  {
    "name": "Binadzori Complex",
    "region": "Kvemo Kartli",
    "type": "CULTURE",
    "lat": 41.338443,
    "lng": 44.703406,
    "image": "https://georgiantravelguide.com/img/default-image-1.svg",
    "description": "Binadzori complex is located in Kvemo Kartli region, in the village of Shaumiani, Marneuli municipality. It is a monument of the XVI-XVII centuries. The complex",
    "id": 1080
  },
  {
    "name": "Birtvisi",
    "region": "Kvemo Kartli",
    "type": "CULTURE",
    "lat": 41.608161903708776,
    "lng": 44.54046299044713,
    "image": "https://cdn.georgiantravelguide.com/storage/thumbnails/dsc-0499-4.jpg",
    "description": "The fortress complex of Birtvisi is located in Kvemo Kartli, in the gorge of the river Algeti, north-east from Tetritskaro. Birtvisi fortress is witness to the",
    "id": 1081
  },
  {
    "name": "Birtvisi Canyon",
    "region": "Kvemo Kartli",
    "type": "NATURE",
    "lat": 41.63876166225005,
    "lng": 44.53016681901592,
    "image": "https://cdn.georgiantravelguide.com/storage/thumbnails/pa180825-4.jpg",
    "description": "Birtvisi Canyon is located in Kvemo Kartli region, Tetritskaro Municipality. If you are a great lover of wildlife and extreme, this place is definitely for you.",
    "id": 1082
  },
  {
    "name": "Black Rock Lake - Round Trip",
    "region": "Kakheti",
    "type": "ACTIVITY",
    "lat": 41.84169751055619,
    "lng": 46.28303029019442,
    "image": "https://cdn.georgiantravelguide.com/storage/thumbnails/img-1711-4.jpg",
    "description": "Black Rock Lake is located in Kakheti, on the border of Georgia - Russia. It’s also known as Long Lake. It is situated in the main watershed of Kavkasioni ridge",
    "id": 1083
  },
  {
    "name": "Blue Lake of Abudelauri",
    "region": "Mtskheta-Mtianeti",
    "type": "NATURE",
    "lat": 42.54448971597661,
    "lng": 44.836909061113374,
    "image": "https://cdn.georgiantravelguide.com/storage/thumbnails/dsc0064-4.jpg",
    "description": "The Abudelauri Blue Lake is located in Khevsureti at the top of the gorge  of the river Abudelauri at the height of 2580 meters above sea level.",
    "id": 1084
  },
  {
    "name": "Blues Village",
    "region": "Kakheti",
    "type": "ACCOMMODATION",
    "lat": 41.839282316524,
    "lng": 46.280880316801,
    "image": "https://cdn.georgiantravelguide.com/storage/thumbnails/199194089-1.jpg",
    "description": "If you want to get lost in the greenery, to listen to some good blues and to relax, then you should definitely visit Blues Village in Lagodekhi.The hotel comple",
    "id": 1085
  },
  {
    "name": "Bochorma fortress-complex",
    "region": "Mtskheta-Mtianeti",
    "type": "CULTURE",
    "lat": 41.909038,
    "lng": 45.148631,
    "image": "https://cdn.georgiantravelguide.com/storage/thumbnails/dsc-0418-14.jpg",
    "description": "Bochorma fortress-complex is located in Mtskheta-Mtianeti region, Tianeti municipality. The exact date of the fortress construction is unknown. It is first ment",
    "id": 1086
  },
  {
    "name": "Bodbe Monastery",
    "region": "Kakheti",
    "type": "CULTURE",
    "lat": 41.6065623746141,
    "lng": 45.9333872795105,
    "image": "https://cdn.georgiantravelguide.com/storage/thumbnails/dji-0092-4.jpg",
    "description": "Bodbe Monastery of St. Nino and Episcopacy is located in Kakheti, 2 kilometers away from Sighnaghi.According to the legend it is built on the burial place of Sa",
    "id": 1087
  },
  {
    "name": "Bodorna Rock Columns Natural Monument",
    "region": "Mtskheta-Mtianeti",
    "type": "NATURE",
    "lat": 42.048056,
    "lng": 44.740833,
    "image": "https://georgiantravelguide.com/img/default-image-1.svg",
    "description": "Bodorna Rock Columns Natural Monument is located in Mtskheta-Mtianeti region, Dusheti Municipality, near the village of Bodorna, on the right side of Aragvi gor",
    "id": 1088
  },
  {
    "name": "Bolnisi Sioni",
    "region": "Kvemo Kartli",
    "type": "CULTURE",
    "lat": 41.388938880562286,
    "lng": 44.51261043548585,
    "image": "https://cdn.georgiantravelguide.com/storage/thumbnails/dji-0615-4.jpg",
    "description": "Bolnisi Sioni Church - The tree-nave basilica is located in the village Bolnisi, Bolnisi municipality, in Kvemo Kartli Region, eastern Georgia. Bolnisi Church f",
    "id": 1089
  },
  {
    "name": "Bora Church",
    "region": "Mtskheta-Mtianeti",
    "type": "CULTURE",
    "lat": 41.83979,
    "lng": 44.63038,
    "image": "https://cdn.georgiantravelguide.com/storage/thumbnails/dji-0320-4.jpg",
    "description": "Bora Church is located in the village of Dzegvi, Mtskheta Municipality, the Mtskheta-Mtianeti region. The church is also called Pillar Church. According to the",
    "id": 1090
  },
  {
    "name": "Borjomi-Kharagauli National Park",
    "region": "Samtskhe-Javakheti",
    "type": "NATURE",
    "lat": 41.83712361923404,
    "lng": 43.3709979057312,
    "image": "https://cdn.georgiantravelguide.com/storage/thumbnails/znph7593-4.jpg",
    "description": "Borjomi-Kharagauli National Park - is located in the central part of Georgia and includes Imereti, Javakheti and Shida Kartli regions. Its total area is 107,083",
    "id": 1091
  },
  {
    "name": "Bude - Cottage in Svaneti",
    "region": "Svaneti",
    "type": "ACCOMMODATION",
    "lat": 43.0399825,
    "lng": 42.7544786,
    "image": "https://cdn.georgiantravelguide.com/storage/thumbnails/dji-0385-14.jpg",
    "description": "Do you dream of relaxing in a real fairytale? Breathe fresh air and unwind in the bosom of nature? Then the cottages \"Bude\" (nest) is designed for you.Bude is o",
    "id": 1092
  },
  {
    "name": "Bugdasheni Managed Reserve",
    "region": "Samtskhe-Javakheti",
    "type": "NATURE",
    "lat": 41.201807442835324,
    "lng": 43.681644077936774,
    "image": "https://georgiantravelguide.com/img/default-image-1.svg",
    "description": "Bughdasheni National Park - includes the lake Bughdasheni and is the part of Javakheti National Park. It includes some territory of Ninotsminda municipality. Th",
    "id": 1093
  },
  {
    "name": "Bursachiri Waterfall",
    "region": "Mtskheta-Mtianeti",
    "type": "NATURE",
    "lat": 42.506667,
    "lng": 44.773333,
    "image": "https://cdn.georgiantravelguide.com/storage/thumbnails/img-20210528-141317-3.jpg",
    "description": "The Bursachiri waterfall is located in the Mtskheta-Mtianeti region, in the Dusheti Municipality, east of the abandoned village of the Gudamakari community, Sal",
    "id": 1094
  },
  {
    "name": "Buzmareti Church",
    "region": "Samtskhe-Javakheti",
    "type": "CULTURE",
    "lat": 41.603781,
    "lng": 42.764933,
    "image": "https://georgiantravelguide.com/img/default-image-1.svg",
    "description": "The Buzmareti Church is located in the Samtskhe-Javakheti region, the Adigeni municipality, at 7-8 km from the village of Ude. Only ruins have survived from the",
    "id": 1095
  },
  {
    "name": "Bzhedukhi",
    "region": "Svaneti",
    "type": "NATURE",
    "lat": 43.12986912407026,
    "lng": 42.896509702846416,
    "image": "https://cdn.georgiantravelguide.com/storage/thumbnails/dji-0761-4.jpg",
    "description": "Bzhedukhi - a peak in Georgia, in the Samegrelo-Zemo Svaneti region, in the municipality of Mestia. Located on the main watershed of the Caucasus. Height 4373 m",
    "id": 1096
  },
  {
    "name": "Bziana",
    "region": "Mtskheta-Mtianeti",
    "type": "CULTURE",
    "lat": 41.88466,
    "lng": 44.79253,
    "image": "https://cdn.georgiantravelguide.com/storage/thumbnails/psx-20210307-165529-4.jpg",
    "description": "The Bziana complex is located in the Mtskheta-Mtianeti region,  Mtskheta Municipality, in the village of Akhalsopeli. It includes three churches and a fence. Th",
    "id": 1097
  },
  {
    "name": "Cathedral Church of the Blessed Virgin Mary",
    "region": "Adjara",
    "type": "CULTURE",
    "lat": 41.646338691567244,
    "lng": 41.63856657426966,
    "image": "https://cdn.georgiantravelguide.com/storage/thumbnails/dji-0490-4.jpg",
    "description": "Cathedral Church of the Blessed Virgin Mary is a&nbsp;Georgian Orthodox cathedral in Batumi, Adjara. It represents a cultural heritage site of national importan",
    "id": 1098
  },
  {
    "name": "Cathedral of the Assumption of the Holy Virgin Mary in Akhalkalaki",
    "region": "Shida Kartli",
    "type": "CULTURE",
    "lat": 41.88723347056349,
    "lng": 44.337156721330935,
    "image": "https://cdn.georgiantravelguide.com/storage/thumbnails/img-3877-4.jpg",
    "description": "The complex of the Cathedral of the Assumption of the Holy Virgin Mary is situated in the site of Shida Kartli, in the municipality of Kaspi, in the village Akh",
    "id": 1099
  },
  {
    "name": "Cathedral of the Nativity of the Blessed Virgin",
    "region": "Georgia",
    "type": "CULTURE",
    "lat": 41.9130181,
    "lng": 44.0935742,
    "image": "https://cdn.georgiantravelguide.com/storage/thumbnails/img-3727-4.jpg",
    "description": "N/A",
    "id": 1100
  },
  {
    "name": "Catholic Church in Batumi",
    "region": "Adjara",
    "type": "CULTURE",
    "lat": 41.645699,
    "lng": 41.649799,
    "image": "https://cdn.georgiantravelguide.com/storage/thumbnails/dji-0648-9.jpg",
    "description": "Catholic Church in Batumi - is located in Batumi, Adjara. It was built in 2000 by the Catholic people from Batumi. The church was consecrated by Archbishop Gius",
    "id": 1101
  },
  {
    "name": "Chacha Tower",
    "region": "Adjara",
    "type": "CULTURE",
    "lat": 41.6527981751062,
    "lng": 41.64263317737692,
    "image": "https://cdn.georgiantravelguide.com/storage/thumbnails/img-0058-4.jpg",
    "description": "\"Chacha\" tower,&nbsp;also known as the Fountain Tower - is located in Batumi, Adjara. The tower is an exact copy of the building that was located in Batumi in t",
    "id": 1102
  },
  {
    "name": "Chachubeti church of Holy Virgin",
    "region": "Shida Kartli",
    "type": "CULTURE",
    "lat": 41.85043919612763,
    "lng": 44.264464427471424,
    "image": "https://cdn.georgiantravelguide.com/storage/thumbnails/img-3818-4.jpg",
    "description": "Chachubeti church of Holy Virgin is located in the village of Chachubeti, Kaspi Municipality, Shida Kartli region. It is a hall building, which dates back to VI",
    "id": 1103
  },
  {
    "name": "Chachuna National Park",
    "region": "Kakheti",
    "type": "NATURE",
    "lat": 41.297232016380235,
    "lng": 45.89706228695919,
    "image": "https://cdn.georgiantravelguide.com/storage/thumbnails/kilakupta-mud-volcano-16.jpg",
    "description": "Chachuna National Park  is located in Historical part Kiziki, Dedoplistskaro Municipality, Kakheti, on the boarder of Georgia and Azerbaijan, in the extreme sou",
    "id": 1104
  },
  {
    "name": "Chailuri (Niakhura) Castle",
    "region": "Kakheti",
    "type": "CULTURE",
    "lat": 41.6946,
    "lng": 45.504021,
    "image": "https://cdn.georgiantravelguide.com/storage/thumbnails/dji-0000406-1-4.jpg",
    "description": "Chailuri (Niakhura) Castle - in Kakheti region, Sagarejo Municipality, south of the village of Chailuri, at the crossing of Kakheti Highway, a large castle erec",
    "id": 1105
  },
  {
    "name": "Chamo",
    "region": "Guria",
    "type": "ACCOMMODATION",
    "lat": 41.911860941623,
    "lng": 42.144826010671,
    "image": "https://cdn.georgiantravelguide.com/storage/thumbnails/img-20220121-wa0000-4.jpg",
    "description": "Chamo - is located near Bakhmaro mountain, in the village Vakijvari, Guria. It is a place where glamping and camping are united in one space. The idea of Chamo",
    "id": 1106
  },
  {
    "name": "Chapala Church",
    "region": "Kvemo Kartli",
    "type": "CULTURE",
    "lat": 41.427398027398,
    "lng": 44.622820236512,
    "image": "https://cdn.georgiantravelguide.com/storage/thumbnails/dsc-0389-14.jpg",
    "description": "Chapala Church is located in  Kvemo Kartli, Bolnisi Municipality, southwest of the village of Chapala, on an open, elevated site. It is built of hewn stone squa",
    "id": 1107
  },
  {
    "name": "Chapala Fortress",
    "region": "Kvemo Kartli",
    "type": "CULTURE",
    "lat": 41.42782092395615,
    "lng": 44.6299409866333,
    "image": "https://cdn.georgiantravelguide.com/storage/thumbnails/dji-0540-9.jpg",
    "description": "Chapala Fortress– Is located near the village Chapala, Bolnisi municipality, Kvemo Kartli region. At the&nbsp; right side of confluence of the rivers Mashavera",
    "id": 1108
  },
  {
    "name": "Chateau Mukhrani",
    "region": "Mtskheta-Mtianeti",
    "type": "CULTURE",
    "lat": 41.94149507915222,
    "lng": 44.58513524583989,
    "image": "https://cdn.georgiantravelguide.com/storage/thumbnails/castle-2017-9.jpg",
    "description": "Chateau\r\nMukhrani is the first and the only true Georgian Royal Chateau, which unites\r\nfour key components: vineyards, winery, castle and history. Mukhranian\r\nw",
    "id": 1109
  },
  {
    "name": "Chatini (Chatintau)",
    "region": "Svaneti",
    "type": "NATURE",
    "lat": 43.137534,
    "lng": 42.67943300000002,
    "image": "https://cdn.georgiantravelguide.com/storage/thumbnails/dji-0735-9.jpg",
    "description": "Chatini (Chatintau)- the peak in Georgia, on the side of Samegrelo-Zemo Svaneti, in the municipality of Mestia. It is situated on the southern lap of the main m",
    "id": 1110
  },
  {
    "name": "Chazhashi Savior Church",
    "region": "Svaneti",
    "type": "CULTURE",
    "lat": 42.914764,
    "lng": 43.009218,
    "image": "https://cdn.georgiantravelguide.com/storage/thumbnails/img-2290a-4.jpg",
    "description": "Chazhashi Savior Church is located in Svaneti, in the municipality of Mestia, the community of Ushguli, in the village of Chazhashi. It is dated to the X centur",
    "id": 1111
  },
  {
    "name": "Chekhedana Church",
    "region": "Adjara",
    "type": "CULTURE",
    "lat": 41.839722,
    "lng": 41.941944,
    "image": "https://georgiantravelguide.com/img/default-image-1.svg",
    "description": "Chekhedana Church is located in the village of Tskhrapona, Kobuleti Municipality, Adjara. It was built in 1609 by Mamia II Gurieli to appease the soul of his yo",
    "id": 1112
  },
  {
    "name": "Cheremi Cathedral",
    "region": "Kakheti",
    "type": "CULTURE",
    "lat": 41.753577279588995,
    "lng": 45.5868878098259,
    "image": "https://cdn.georgiantravelguide.com/storage/thumbnails/psx-20200806-191713-4.jpg",
    "description": "The Episcopal Church complex is located in the center of the village of Chermi. The complex includes a cathedral, a palace, and a fence. The cathedral is situat",
    "id": 1113
  },
  {
    "name": "Cheremi historic site",
    "region": "Kakheti",
    "type": "CULTURE",
    "lat": 41.76773458376348,
    "lng": 45.5583163143214,
    "image": "https://cdn.georgiantravelguide.com/storage/thumbnails/psx-20200807-083914-4.jpg",
    "description": "Cheremi historic site (the ruined/former city of Cheremi) is located in the central part of Gombori ridge, in the area of ​​the village Cheremi and on the rocky",
    "id": 1114
  },
  {
    "name": "Cheremi Rocks",
    "region": "Mtskheta-Mtianeti",
    "type": "NATURE",
    "lat": null,
    "lng": null,
    "image": "https://georgiantravelguide.com/img/default-image-1.svg",
    "description": "Cheremi Rocks - are situated on the side of Mtskheta-Mtianeti, in the municipality of Mtskheta, between the villages: Mukhatgverdi and Dighomi, 550-600 meters f",
    "id": 1115
  },
  {
    "name": "Cheremi St. George Church",
    "region": "Kakheti",
    "type": "CULTURE",
    "lat": 41.753929449395955,
    "lng": 45.587017652562224,
    "image": "https://cdn.georgiantravelguide.com/storage/thumbnails/psx-20200805-230820-4.jpg",
    "description": "St. George's Church is located in the center of the village Cheremi. The church was constructed in the late Middle Ages. It is a hall, built of an irregular pil",
    "id": 1116
  },
  {
    "name": "Cheremi Tsverodabali St. George Church",
    "region": "Kakheti",
    "type": "CULTURE",
    "lat": 41.76671030479229,
    "lng": 45.560944360517816,
    "image": "https://cdn.georgiantravelguide.com/storage/thumbnails/psx-20200807-104206-4.jpg",
    "description": "St. George (Tsverodabali) Church is located 3.5-4 km east of the modern village of Cheremi, in the eastern part of the Tsverodabali hill, on an elevated spot. T",
    "id": 1117
  },
  {
    "name": "Chichkhituri Monastery",
    "region": "Kakheti",
    "type": "CULTURE",
    "lat": 41.45670356326202,
    "lng": 45.354672828790214,
    "image": "https://cdn.georgiantravelguide.com/storage/thumbnails/img-7139-4.jpg",
    "description": "",
    "id": 1118
  },
  {
    "name": "Chikiani Mountain",
    "region": "Samtskhe-Javakheti",
    "type": "NATURE",
    "lat": 41.477222,
    "lng": 43.865,
    "image": "https://georgiantravelguide.com/img/default-image-1.svg",
    "description": "Chikiani Mountain- is located in Samtskhe-Javakheti, in the municipality of Ninotsminda, in the north part of the Javakheti mountain range. The height is 2415 m",
    "id": 1119
  },
  {
    "name": "Chili Lake",
    "region": "Mtskheta-Mtianeti",
    "type": "NATURE",
    "lat": 41.812937,
    "lng": 44.679509,
    "image": "https://cdn.georgiantravelguide.com/storage/thumbnails/chilis-tba-4.jpg",
    "description": "Chili Lake is located in Mtskheta-Mtianeti region, Mtskheta municipality, in the village of Telovani, a few kilometers from the Mukhatgverdi cemetery, at 1130 m",
    "id": 1120
  },
  {
    "name": "Chinchao Lake",
    "region": "Guria",
    "type": "NATURE",
    "lat": 41.79082400515023,
    "lng": 42.222237936404554,
    "image": "https://cdn.georgiantravelguide.com/storage/thumbnails/img-0977-4.jpg",
    "description": "Chinchao Lake is a crater-like origin lake, which is located in Guria, at 2500 meters from the sea level.The lake is not very big, but it’s very beautiful and a",
    "id": 1121
  },
  {
    "name": "Chiora Inn",
    "region": "Racha",
    "type": "ACCOMMODATION",
    "lat": 42.743006040417,
    "lng": 43.554282493647,
    "image": "https://cdn.georgiantravelguide.com/storage/thumbnails/gruzja-06-2023-zdj-z-aparatu-9.jpg",
    "description": "Chiora Inn is a family hotel with eight individual rooms. Each room has its private bathroom and a view to the gorgeous Racha mountains. Four rooms on the main",
    "id": 1122
  },
  {
    "name": "Chkhikvta Sameba Church With Megalith Wall",
    "region": "Kvemo Kartli",
    "type": "CULTURE",
    "lat": 41.566667,
    "lng": 44.518333,
    "image": "https://cdn.georgiantravelguide.com/storage/thumbnails/img-0696-4.jpg",
    "description": "Chkhikvata Trinity Church is located in the village Chkhikvta, Kvemo Kartli region, Tetritskaro Municipality. It is a late medieval monument. The church has bee",
    "id": 1123
  },
  {
    "name": "Chkumi Waterfall",
    "region": "Lechkhumi",
    "type": "NATURE",
    "lat": 42.610278,
    "lng": 42.662222,
    "image": "https://georgiantravelguide.com/img/default-image-1.svg",
    "description": "The Chkumi waterfall is located in Lechkhumi, near the village of Chkumi, at 715 meters above sea level. It flows down into a groove-shaped deepening of the roc",
    "id": 1124
  },
  {
    "name": "Christ the Savior Cathedral of Tsalenjikha",
    "region": "Samegrelo",
    "type": "CULTURE",
    "lat": 42.600511,
    "lng": 42.081719,
    "image": "https://cdn.georgiantravelguide.com/storage/thumbnails/dji-0466-9.jpg",
    "description": "Christ the Savior Cathedral of Tsalenjikha – is situated in Samegrelo, in the municipality of Tsalenjikha, near the city Tsalejikha. This is the X-XIII century",
    "id": 1125
  },
  {
    "name": "Chule Monastery",
    "region": "Samtskhe-Javakheti",
    "type": "CULTURE",
    "lat": 41.703457684070706,
    "lng": 42.702100574970245,
    "image": "https://cdn.georgiantravelguide.com/storage/thumbnails/dji-0491-4.jpg",
    "description": "The Chulevi monastery of St. George is a 14th-century Georgian Orthodox domed church located in the region of Samtskhe-Javakheti, in Adigeni municipality, at th",
    "id": 1126
  },
  {
    "name": "Chule Waterfall",
    "region": "Samtskhe-Javakheti",
    "type": "NATURE",
    "lat": 41.704796,
    "lng": 42.703042,
    "image": "https://cdn.georgiantravelguide.com/storage/thumbnails/img-0691-4.jpg",
    "description": "Chule Waterfall is located on the site of Samtskhe-Javakheti, in the municipality of Adigeni, in the village of Patara Zanavi (it is translated in Georgia, as a",
    "id": 1127
  },
  {
    "name": "Cold (Tsivi) Lake",
    "region": "Imereti",
    "type": "NATURE",
    "lat": 42.33034800998327,
    "lng": 42.607796079227775,
    "image": "https://cdn.georgiantravelguide.com/storage/thumbnails/dji-0098-9.jpg",
    "description": "Cold (Tsivi) Lake - entertainment and leisure complex, located in Imereti, Tskaltubo.",
    "id": 1128
  },
  {
    "name": "Colonnades",
    "region": "Adjara",
    "type": "CULTURE",
    "lat": 41.65444093841676,
    "lng": 41.63394871194985,
    "image": "https://cdn.georgiantravelguide.com/storage/thumbnails/img-0086-4.jpg",
    "description": "Colonnades – located in Batumi Boulevard, Adjara. It is one of the most interesting sights in the city and Batumi Boulevard more beautiful for 80 years.The auth",
    "id": 1129
  },
  {
    "name": "Contemporary Fine Arts Gallery",
    "region": "Guria",
    "type": "CULTURE",
    "lat": 42.01327204505566,
    "lng": 42.238412755088,
    "image": "https://cdn.georgiantravelguide.com/storage/thumbnails/66676917-2097519753875292-733734-1.jpg",
    "description": "The Gallery of Contemporary Fine Arts is located in Chokhatauri Municipality. It opened on June 17, 2016.\r\n\r\nThe gallery serves the movements of fine arts, arti",
    "id": 1130
  },
  {
    "name": "Cotria's House in Gomismta",
    "region": "Guria",
    "type": "ACCOMMODATION",
    "lat": 41.825935801686974,
    "lng": 42.16282619167128,
    "image": "https://cdn.georgiantravelguide.com/storage/thumbnails/cafea64e-070f-42fd-a04e-5c45063a-5.jpg",
    "description": "Spend an unforgettable holiday at Gomismta (reachable from Ozurgeti).\r\n\r\nCotria offers a heaven of peace and tranquillity, set in an elevated position with a st",
    "id": 1131
  },
  {
    "name": "Cottage Abies in Racha",
    "region": "Racha",
    "type": "ACCOMMODATION",
    "lat": 42.453983885782,
    "lng": 43.163606266471,
    "image": "https://cdn.georgiantravelguide.com/storage/thumbnails/whatsapp-image-2022-07-20-at-11-15.jpeg",
    "description": "Location:Abies is located about 250 kilometers from Tbilisi in the beautiful Skhartali village in Ambrolauri municipality, Racha.How to Get There:To get to the",
    "id": 1132
  },
  {
    "name": "Cottage at Gomismta",
    "region": "Guria",
    "type": "ACCOMMODATION",
    "lat": 41.819289,
    "lng": 42.15713,
    "image": "https://cdn.georgiantravelguide.com/storage/thumbnails/gomismtaze-9.jpg",
    "description": "The cottage is equipped with the following amenities:&nbsp;kitchen with kitchenware;cold water;Gas stove;8 beds;81 cm wide flat TV with USB support&nbsp;electri",
    "id": 1133
  },
  {
    "name": "Cottage Chubezeni",
    "region": "Svaneti",
    "type": "ACCOMMODATION",
    "lat": 43.029582597973,
    "lng": 42.185578844372,
    "image": "https://cdn.georgiantravelguide.com/storage/thumbnails/101829807-176568453824707-611050-5.jpg",
    "description": "The cottages are located in Svaneti-Chuberi.Chuberi is the most beautiful and distinctive gorge in Zemo Svaneti (Upper Svaneti) with its nature, fresh air and n",
    "id": 1134
  },
  {
    "name": "Cottage Gio in Racha",
    "region": "Racha",
    "type": "ACCOMMODATION",
    "lat": 42.450278865875,
    "lng": 43.115500761264,
    "image": "https://cdn.georgiantravelguide.com/storage/thumbnails/img-0373-27.jpg",
    "description": "Are you looking for a fabulous environment in Racha? Do you want a cozy vacation and enjoy the beautiful views? Then you should definitely rest in Racha, in our",
    "id": 1135
  },
  {
    "name": "Cottage in Borjomi",
    "region": "Samtskhe-Javakheti",
    "type": "ACCOMMODATION",
    "lat": 41.813547079474,
    "lng": 43.406149019096,
    "image": "https://cdn.georgiantravelguide.com/storage/thumbnails/4823e49a-5888-4bbb-bea4-6250cb15-1.webp",
    "description": "Relax in comfortable cottages in Borjomi.Our beautiful and cozy cottages are located in the village of Sadgeri, Borjomi district. Borjomi sulfur pools are locat",
    "id": 1136
  },
  {
    "name": "Cottage in Gudauri",
    "region": "Mtskheta-Mtianeti",
    "type": "ACCOMMODATION",
    "lat": 42.47566982319,
    "lng": 44.478584321611,
    "image": "https://cdn.georgiantravelguide.com/storage/thumbnails/a80316ff-1a00-450c-993b-55d08283-2.jpeg",
    "description": "Cottage in Gudauri is located in Gudauri. Book the cottage and spend unforgettable days with friends or family members.\r\nThe 2-storey cottage is designed for 8+",
    "id": 1137
  },
  {
    "name": "Cottage in Sataplia",
    "region": "Imereti",
    "type": "ACCOMMODATION",
    "lat": 42.301671482218,
    "lng": 42.661462281365,
    "image": "https://cdn.georgiantravelguide.com/storage/thumbnails/316806980-609998171002147-708210-4.jpg",
    "description": "Cottage Sataflia is located in Imereti, 1.5 km from the Museum-Reserve of Sataflia.\r\nThe cottage can accommodate a maximum of 4 people.\r\nHere you will find ever",
    "id": 1138
  },
  {
    "name": "Cottage Mukhuri",
    "region": "Samegrelo",
    "type": "ACCOMMODATION",
    "lat": 42.636699726675,
    "lng": 42.174158107774,
    "image": "https://cdn.georgiantravelguide.com/storage/thumbnails/1-1050.png",
    "description": "Are you tired of always seeing the same cottages, no matter the region where you travel, soulless and stuck to each other? Welcome to my grandfather's first hou",
    "id": 1139
  },
  {
    "name": "Cottages in the vicinity of the Prometheus cave",
    "region": "Imereti",
    "type": "ACCOMMODATION",
    "lat": 42.372578623741,
    "lng": 42.600078499388,
    "image": "https://cdn.georgiantravelguide.com/storage/thumbnails/176151029-453060069284478-633332-4.jpg",
    "description": "During a visit to Imereti, be sure to visit the Prometheus cave. Well, if you decide to find a cozy place to spend the night, you should definitely stay at our",
    "id": 1140
  },
  {
    "name": "Cozy Cabin",
    "region": "Mtskheta-Mtianeti",
    "type": "ACCOMMODATION",
    "lat": 41.739445,
    "lng": 44.635151,
    "image": "https://cdn.georgiantravelguide.com/storage/thumbnails/cozycabin1-1.jpeg",
    "description": "Location:Mskhaldidi - belongs to Mtskheta municipality, although it is not located in the city of Mtskheta. Two roads are going up to Mskhaldidi, one from Unive",
    "id": 1141
  },
  {
    "name": "Daba St. George’s Church",
    "region": "Samtskhe-Javakheti",
    "type": "CULTURE",
    "lat": 41.8068,
    "lng": 43.44618000000003,
    "image": "https://cdn.georgiantravelguide.com/storage/thumbnails/dji-0582-4.jpg",
    "description": "Daba St. George’s Church is located in Borjomi municipality in the village of Daba. The Church in Daba is one of the ancient and the strongest churches of Georg",
    "id": 1142
  },
  {
    "name": "Dadiani Palace",
    "region": "Samegrelo",
    "type": "CULTURE",
    "lat": 42.51209556755697,
    "lng": 41.87391757965088,
    "image": "https://cdn.georgiantravelguide.com/storage/thumbnails/aa-dsc0236-13-4.jpg",
    "description": "Dadiani Palace was the residency of Dadiani, princes of Samegrelo. It was built in17th century by the prince of Odishi, Levan Dadiani. It is located in the cent",
    "id": 1143
  },
  {
    "name": "Dadiani Saint George Church",
    "region": "Samegrelo",
    "type": "CULTURE",
    "lat": 42.510041,
    "lng": 42.344703,
    "image": "https://cdn.georgiantravelguide.com/storage/thumbnails/img-3202-4.jpg",
    "description": "Dadiani Saint George Church is located in the yard of Salkhino Dadiani Palace, in the village Salkhino, in the municipality of Martvili, in the site of Samegrel",
    "id": 1144
  },
  {
    "name": "Dalakori Summit",
    "region": "Svaneti",
    "type": "NATURE",
    "lat": 43.133752038804744,
    "lng": 42.73723265659216,
    "image": "https://cdn.georgiantravelguide.com/storage/thumbnails/dji-0761-4.jpg",
    "description": "Dalakori Ridge, Dalakhora, is the southern branch of the main watershed of the Caucasus mountains in Svaneti, between the Lekhzir-Chalaati glaciers.  The highes",
    "id": 1145
  },
  {
    "name": "Dali mount reservoir",
    "region": "Kakheti",
    "type": "NATURE",
    "lat": 41.28655735987628,
    "lng": 45.88258244060478,
    "image": "https://cdn.georgiantravelguide.com/storage/thumbnails/dji-0345-4.jpg",
    "description": "Dali mount reservoir (Dali reservoir, Dali lake) is located in Dedoplistskaro municipality, Kakheti Region, East Georgia.It is made at the low flow of the river",
    "id": 1146
  },
  {
    "name": "Damchkeri Waterfall",
    "region": "Shida Kartli",
    "type": "NATURE",
    "lat": 41.892909,
    "lng": 44.092822,
    "image": "https://georgiantravelguide.com/img/default-image-1.svg",
    "description": "Damchkeri Waterfall is located in Shida Kartli region, Gori Municipality, near the village of Didi ateni, in the Tana gorge, at 880 meters above sea level. The",
    "id": 1147
  },
  {
    "name": "Dandalo Bridge",
    "region": "Adjara",
    "type": "URBAN_EXPLORER",
    "lat": 41.64698986639778,
    "lng": 42.10808723445594,
    "image": "https://cdn.georgiantravelguide.com/storage/thumbnails/img-0718-4.jpg",
    "description": "Dandalo Bridge - an arched bridge over the river Adjaristskali. It is located in Adjara, Keda Municipality, near the village of Dandalo, on the old big highway",
    "id": 1148
  },
  {
    "name": "Dariali Monastery Complex",
    "region": "Mtskheta-Mtianeti",
    "type": "CULTURE",
    "lat": 42.73564408011002,
    "lng": 44.63124435267504,
    "image": "https://cdn.georgiantravelguide.com/storage/thumbnails/dji-0584-9.jpg",
    "description": "Dariali Father Monastery Complex, named after the Archangels - is located in the region on Mtskheta-Mtianeti, in the municipality of Stephantsminda, Kazbegi,130",
    "id": 1149
  },
  {
    "name": "Dashbashi Canyon",
    "region": "Kvemo Kartli",
    "type": "NATURE",
    "lat": 41.594215047249364,
    "lng": 44.12429094314575,
    "image": "https://cdn.georgiantravelguide.com/storage/thumbnails/img-7250-4.jpg",
    "description": "Dashbashi Canyon is located in Kvemo Kartli region, Tsalka municipality, in the gorge of the river Khrami, near the village Dashbashi, at 1110-1448 meters above",
    "id": 1150
  },
  {
    "name": "Data's Hut",
    "region": "Mtskheta-Mtianeti",
    "type": "ACCOMMODATION",
    "lat": 42.007708822216,
    "lng": 45.013607514179,
    "image": "https://cdn.georgiantravelguide.com/storage/thumbnails/dji-0702-19.jpg",
    "description": "Data's Hut is located in Sioni, near Sioni Reservoir, on the edge of the lake.The hut can accommodate 4 people.The Hut Has:Double bedFolding sofaSmall kitchenKi",
    "id": 1151
  },
  {
    "name": "David Aghmashenebeli Avenue",
    "region": "Tbilisi",
    "type": "OTHER",
    "lat": 41.711859,
    "lng": 44.795607,
    "image": "https://cdn.georgiantravelguide.com/storage/thumbnails/agmashenebeli-4.jpg",
    "description": "Davit Agmashenebeli Avenue is one of the most interesting, diverse and popular streets in Tbilisi. It is often visited by locals as well as tourists. The archit",
    "id": 1152
  },
  {
    "name": "David Gareja Monastery",
    "region": "Kakheti",
    "type": "CULTURE",
    "lat": 41.447491,
    "lng": 45.376466,
    "image": "https://cdn.georgiantravelguide.com/storage/thumbnails/img-7123-4.jpg",
    "description": "Davit Gareja (David Gareji Monastery Complex) - one of the most notable religious and cultural centers of Georgia, the monastery cave complex. It is located in",
    "id": 1153
  },
  {
    "name": "David Komakhidze Religious Museum",
    "region": "Adjara",
    "type": "CULTURE",
    "lat": 41.663346731578315,
    "lng": 41.68197385288486,
    "image": "https://cdn.georgiantravelguide.com/storage/thumbnails/saekspozitsio-05-jpeg-3.jpg",
    "description": "David Komakhidze Religious Museum is located in Tamar settlement, Adjara, Batumi. The museum was opened in 2004 and was built under the leadership of the then M",
    "id": 1154
  },
  {
    "name": "Day Tip To Mtskheta",
    "region": "Mtskheta-Mtianeti",
    "type": "CULTURE",
    "lat": 41.845785190150266,
    "lng": 44.720321257033866,
    "image": "https://cdn.georgiantravelguide.com/storage/thumbnails/dji-0259-4.jpg",
    "description": "The ancient capital of Georgia is located close to Tbilisi, so a wonderful idea would be a one-day or even half-day walk in Mtskheta. You can start the tour of",
    "id": 1155
  },
  {
    "name": "Deda Ena Peak",
    "region": "Mtskheta-Mtianeti",
    "type": "NATURE",
    "lat": 42.519828832260735,
    "lng": 44.42705860173379,
    "image": "https://cdn.georgiantravelguide.com/storage/thumbnails/dsc-0006-4.jpg",
    "description": "Deda Ena Peak (Gogebashvili)- is located in Mtskheta-Mtianeti, In the municipality of Stephantsminda (Kazbegi), 3493 meters from sea level. There is no need for",
    "id": 1156
  },
  {
    "name": "Dedaena Park",
    "region": "Tbilisi",
    "type": "NATURE",
    "lat": 41.700665,
    "lng": 44.804197,
    "image": "https://georgiantravelguide.com/img/default-image-1.svg",
    "description": "Dedaena Park is one of the most popular parks in Tbilisi. It is located at the intersection of Dry Bridge&nbsp;and Skudier Streets. The Dedaena park is the perf",
    "id": 1157
  },
  {
    "name": "Deduleti",
    "region": "Racha",
    "type": "ACCOMMODATION",
    "lat": 42.453466377737,
    "lng": 43.16470135574,
    "image": "https://cdn.georgiantravelguide.com/storage/thumbnails/102704972-547623739189994-433155-4.jpg",
    "description": "If you decide to spend your vacation in a cozy wooden cottage in Racha, you should definitely opt for Deduleti.Cottage Deduleti is located in Racha, in the vill",
    "id": 1158
  },
  {
    "name": "Deka House near Gudauri Ski Resort",
    "region": "Mtskheta-Mtianeti",
    "type": "ACCOMMODATION",
    "lat": 42.471790914042,
    "lng": 44.484768196769,
    "image": "https://cdn.georgiantravelguide.com/storage/thumbnails/1-2-26.jpg",
    "description": "The exact price depends on the duration of the stay. Contact us via WhatsApp, Viber, Signal, Telegram.Perfect for your summer destination - Your Escape Awaits a",
    "id": 1159
  },
  {
    "name": "Dekhviri Fortress",
    "region": "Lechkhumi",
    "type": "CULTURE",
    "lat": null,
    "lng": null,
    "image": "https://georgiantravelguide.com/img/default-image-1.svg",
    "description": "Dekhviri fortress is located in Lechkhumi, near the village of Dekhviri. It is a monument from the High Medieval Period. The fortress was first mentioned in wri",
    "id": 1160
  },
  {
    "name": "Demoti Fortress",
    "region": "Samtskhe-Javakheti",
    "type": "CULTURE",
    "lat": 41.80513665076672,
    "lng": 43.240932819239674,
    "image": "https://cdn.georgiantravelguide.com/storage/thumbnails/dji-0229-19.jpg",
    "description": "Demoti Fortress - The historical fortress which is located in Samtskhe, in Borjomi municipality, in the Kvabiskhevi valley, on the foot of the Persati mountain,",
    "id": 1161
  },
  {
    "name": "Didgalish Toba",
    "region": "Samegrelo",
    "type": "NATURE",
    "lat": 42.79013097778311,
    "lng": 42.24915343606119,
    "image": "https://cdn.georgiantravelguide.com/storage/thumbnails/img-4877-4.jpg",
    "description": "Didgalish Toba is located in Samegrelo-Zemo Svaneti on the Egrisi range at 2700 MSL. Didgalish Toba is a small lake and is located very close to the Tobavarchkh",
    "id": 1162
  },
  {
    "name": "Didgori Monument",
    "region": "Kvemo Kartli",
    "type": "CULTURE",
    "lat": 41.760839,
    "lng": 44.508121,
    "image": "https://cdn.georgiantravelguide.com/storage/thumbnails/didgori-monument-4.jpg",
    "description": "Didgori Monument is located in Kvemo Kartli region, Tetritskaro Municipality. The memorial complex, which consists of many elements, is dedicated to one of the",
    "id": 1163
  },
  {
    "name": "Didi Abuli",
    "region": "Samtskhe-Javakheti",
    "type": "NATURE",
    "lat": 41.43695963066089,
    "lng": 43.6457633972168,
    "image": "https://cdn.georgiantravelguide.com/storage/thumbnails/p7-4.jpg",
    "description": "Mount Didi Abuli is located in Akhalkalaki municipality, Samtskhe-Javakheti region. It is one of the most beautiful places in the region, from where you can see",
    "id": 1164
  },
  {
    "name": "Didi Kldeisi St. Mary Church",
    "region": "Kvemo Kartli",
    "type": "CULTURE",
    "lat": 41.583835,
    "lng": 44.252421,
    "image": "https://cdn.georgiantravelguide.com/storage/thumbnails/kldeisis-ghvtismshoblis-eklesia-x-44.jpg",
    "description": "Didi Kldeisi St. Mary Church is located in the village of Didi Kldeisi, Tetritskaro Municipality, Kvemo Kartli region. It dates back to the X-XI centuries. The",
    "id": 1165
  },
  {
    "name": "Didube Pantheon",
    "region": "Tbilisi",
    "type": "CULTURE",
    "lat": 41.729472,
    "lng": 44.785658,
    "image": "https://georgiantravelguide.com/img/default-image-1.svg",
    "description": "Didube Pantheon is located on Tsereteli Avenue in Didube, Tbilisi. It is the cemetery of prominent writers, public figures, scientists and artists. Famous figur",
    "id": 1166
  },
  {
    "name": "Dighomi Forest Park",
    "region": "Tbilisi",
    "type": "NATURE",
    "lat": 41.76700663718168,
    "lng": 44.772262621819884,
    "image": "https://cdn.georgiantravelguide.com/storage/thumbnails/img-7171-9.jpg",
    "description": "Digomi Forest Park - located in Tbilisi, at Digomi Massif, between Akhmeteli and Ljubljana streets. The history of the forest-park dates back to 1934, when the",
    "id": 1167
  },
  {
    "name": "Dimitri Shevardnadze National Gallery",
    "region": "Tbilisi",
    "type": "CULTURE",
    "lat": 41.69832,
    "lng": 44.798744,
    "image": "https://georgiantravelguide.com/img/default-image-1.svg",
    "description": "Dimitri Shevardnadze National Gallery is located in the capital city of Georgia, in Tbilisi, on Rustaveli Avenue. It is in the membership of National Museums",
    "id": 1168
  },
  {
    "name": "Dimna Castle",
    "region": "Imereti",
    "type": "CULTURE",
    "lat": null,
    "lng": null,
    "image": "https://georgiantravelguide.com/img/default-image-1.svg",
    "description": "Dimi Castle aka “ a throat of a castle” is situated in Upper Dimi,in the west of the villageon a high mountain.There are only ruins left. The range of ruins is",
    "id": 1169
  },
  {
    "name": "Dmanisi Museum-Reserve",
    "region": "Kvemo Kartli",
    "type": "CULTURE",
    "lat": 41.336255,
    "lng": 44.342877,
    "image": "https://cdn.georgiantravelguide.com/storage/thumbnails/dsc-0423-29.jpg",
    "description": "Dmanisi Museum-Reserve is located in Kvemo Kartli region, Dmanisi municipality, in the village of Patara Dmanisi. The museum-reserve includes: a medieval town,",
    "id": 1170
  },
  {
    "name": "Dromatarebine",
    "region": "Samtskhe-Javakheti",
    "type": "NATURE",
    "lat": 41.51169996736623,
    "lng": 43.69293206584655,
    "image": "https://cdn.georgiantravelguide.com/storage/thumbnails/img-4192-4.jpg",
    "description": "Lake Dromatarebine is located on the Abul-Samsari ridge 2800 meters above sea level.&nbsp;",
    "id": 1171
  },
  {
    "name": "Dry Bridge",
    "region": "Tbilisi",
    "type": "URBAN_EXPLORER",
    "lat": 41.700456,
    "lng": 44.802477,
    "image": "https://georgiantravelguide.com/img/default-image-1.svg",
    "description": "Dry Bridge is a bridge built in 1849-51, located in Tbilisi, between Atoneli and Khidi bridges. It is famous for its antiques market and open-air art exhibition",
    "id": 1172
  },
  {
    "name": "Duruji Boulder",
    "region": "Kakheti",
    "type": "NATURE",
    "lat": 41.989167,
    "lng": 45.843611,
    "image": "https://georgiantravelguide.com/img/default-image-1.svg",
    "description": "Duruji Boulder is located in Kakheti, Kvareli Municipality, near the town of Kvareli, on the bank of the river Duruji, 430 meters above sea level. During one of",
    "id": 1173
  },
  {
    "name": "Dviri Fortress",
    "region": "Samtskhe-Javakheti",
    "type": "CULTURE",
    "lat": 41.76993537786477,
    "lng": 43.25544834136963,
    "image": "https://cdn.georgiantravelguide.com/storage/thumbnails/dji-0530-4.jpg",
    "description": "Dviri Fortress is one of the most important objects of &nbsp;historical monuments of Borjomi region. The ruins of the fortress are located in the west of the vi",
    "id": 1174
  },
  {
    "name": "Dzegvi Trinity Church",
    "region": "Mtskheta-Mtianeti",
    "type": "CULTURE",
    "lat": 41.83137981525,
    "lng": 44.64091532542,
    "image": "https://cdn.georgiantravelguide.com/storage/thumbnails/dji-0309-9.jpg",
    "description": "Dzegvi Trinity Church is located in the village of Dzegvi, Mtskheta Municipality, the Mtskheta-Mtianeti region. The monument dates back to the 17th century. It",
    "id": 1175
  },
  {
    "name": "Eagle Gorge",
    "region": "Kakheti",
    "type": "NATURE",
    "lat": 41.48963228733,
    "lng": 46.0963221346899,
    "image": "https://cdn.georgiantravelguide.com/storage/thumbnails/dji-0265-4.jpg",
    "description": "Eagle Gorge (Artsivi Kheoba) - Natural monument in Georgia, located in Kakheti, 0.5 km north of Dedoplistskaro and 762 meters above sea level, includes the prot",
    "id": 1176
  },
  {
    "name": "Eco Cottage",
    "region": "Imereti",
    "type": "ACCOMMODATION",
    "lat": 42.272730724306,
    "lng": 42.660498517251,
    "image": "https://cdn.georgiantravelguide.com/storage/thumbnails/100089044-150962499817512-487939-4.jpg",
    "description": "Eco cottages are located on the highway connecting the city of Kutaisi and Tskaltubo, 1.2 kilometers from Kutaisi.\r\nWhen you visit us, you can relax in a quiet",
    "id": 1177
  },
  {
    "name": "Eco huts in Mestia",
    "region": "Svaneti",
    "type": "ACCOMMODATION",
    "lat": 43.041389,
    "lng": 42.729722,
    "image": "https://cdn.georgiantravelguide.com/storage/thumbnails/img-9229-4.jpg",
    "description": "If you have decided to spend your vacation in Svaneti and you have not yet found where to stay, then you should choose our eco hut.In our eco hut, you will find",
    "id": 1178
  },
  {
    "name": "Egnate Fifia House Museum",
    "region": "Samegrelo",
    "type": "CULTURE",
    "lat": null,
    "lng": null,
    "image": "https://georgiantravelguide.com/img/default-image-1.svg",
    "description": "Egnate Fifia House Museum is located in Samegrelo, in the municipality of Tsalenjikha, in the village of Chkvaleri. In the museum, there are preserved the memor",
    "id": 1179
  },
  {
    "name": "Eki Fortress",
    "region": "Samegrelo",
    "type": "CULTURE",
    "lat": 42.32613337138896,
    "lng": 42.06583331611345,
    "image": "https://cdn.georgiantravelguide.com/storage/thumbnails/dji-0479-9.jpg",
    "description": "Eki Fortress is located in Samegrelo, Senaki Municipality, in the vicinity of the village Eki, on the top of a high mountain. It dates back to the early Middle",
    "id": 1180
  },
  {
    "name": "Elia Fortress",
    "region": "Adjara",
    "type": "CULTURE",
    "lat": 41.813333,
    "lng": 41.959722,
    "image": "https://georgiantravelguide.com/img/default-image-1.svg",
    "description": "Elia Fortress is located in Adjara, Kobuleti Municipality, on Chakhati Mountain, on a ridge ending in a massive rock, at 1150 meters above sea level. It is a me",
    "id": 1181
  },
  {
    "name": "Elia monastery",
    "region": "Kakheti",
    "type": "CULTURE",
    "lat": 41.441938205384574,
    "lng": 46.10929727554321,
    "image": "https://cdn.georgiantravelguide.com/storage/thumbnails/dji-0331-4.jpg",
    "description": "Elia monastery is located in Kakheti, in the southern part of Dedoplistskaro, on double-peak limestone mountain. Temple of the Saint Ilia Tezbiteli is located o",
    "id": 1182
  },
  {
    "name": "enduro tours in Georgia",
    "region": "Adjara",
    "type": "OTHER",
    "lat": 41.704211570363,
    "lng": 44.792286249795,
    "image": "https://cdn.georgiantravelguide.com/storage/thumbnails/moto-tour-photo-4.jpg",
    "description": "Boundless enduro in Georgia! The variety of landscapes and microclimates is outstanding. We are riding from the sea and subtropics, to savanna and the forever s",
    "id": 1183
  },
  {
    "name": "Enguri (Jvari) Reservoir",
    "region": "Samegrelo",
    "type": "NATURE",
    "lat": 42.763185496804205,
    "lng": 42.02723509251397,
    "image": "https://cdn.georgiantravelguide.com/storage/thumbnails/dji-0062-9.jpg",
    "description": "Enguri (Jvari) Reservoir - Enguri hydropower plant - Reservoir and hydropower plant in western Georgia, located in Tsalenjikha Municipality, near the town of Jv",
    "id": 1184
  },
  {
    "name": "Erelaant Church",
    "region": "Kakheti",
    "type": "CULTURE",
    "lat": 42.04966,
    "lng": 45.16372,
    "image": "https://cdn.georgiantravelguide.com/storage/thumbnails/dsc-0284-29.jpg",
    "description": "The Erelaant temple is located in Kakheti, near the village of Matani, Akhmeta municipality. It dates back to the 5th-6th centuries. The church is a domed build",
    "id": 1185
  },
  {
    "name": "Eristavi Fortress-Hall",
    "region": "Guria",
    "type": "CULTURE",
    "lat": 42.012761872395906,
    "lng": 42.24794962472357,
    "image": "https://cdn.georgiantravelguide.com/storage/thumbnails/img-5559602-21-4.jpg",
    "description": "Guria Eristavi Fortress-Hall is located in the village of Goraberezhouli, Chokhatauri Municipality. The castle was built on a high hill in the XVII-XVIII centur",
    "id": 1186
  },
  {
    "name": "Erketi Church",
    "region": "Guria",
    "type": "CULTURE",
    "lat": 41.983136694392,
    "lng": 42.273674076571,
    "image": "https://cdn.georgiantravelguide.com/storage/thumbnails/dsc-0005-19.jpg",
    "description": "Erketi Church is located in the village of Zemo Erketi, Chokhatauri Municipality, Guria. It dates back to the 9th century. The temple and the adjacent territory",
    "id": 1187
  },
  {
    "name": "Ertatsminda St. Estate Cathedral",
    "region": "Shida Kartli",
    "type": "CULTURE",
    "lat": 41.86535049524308,
    "lng": 44.3240883532295,
    "image": "https://cdn.georgiantravelguide.com/storage/thumbnails/dji-0692-9.jpg",
    "description": "Ertatsminda St. Estate Church is located in Shida Kartli region, in the village of Ertatsminda, Kaspi Municipality. It is a XIII century cross-domed church. The",
    "id": 1188
  },
  {
    "name": "Ertso Castle",
    "region": "Mtskheta-Mtianeti",
    "type": "CULTURE",
    "lat": 42.008463,
    "lng": 44.943094,
    "image": "https://cdn.georgiantravelguide.com/storage/thumbnails/dji-0752-4.jpg",
    "description": "Ertso Castle - a defensive structure, located in the Mtskheta-Mtianeti region, Tianeti Municipality.",
    "id": 1189
  },
  {
    "name": "Ertso Lake",
    "region": "Shida Kartli",
    "type": "NATURE",
    "lat": 42.470333,
    "lng": 43.752083,
    "image": "https://georgiantravelguide.com/img/default-image-1.svg",
    "description": "Ertso Lake is located in the Shida Kartli region, Java Municipality, near the village of Ertso, in the basin of the river Kvirila, at 1710 meters above sea leve",
    "id": 1190
  },
  {
    "name": "Ethnographic Museum \"Borjgalo\"",
    "region": "Adjara",
    "type": "CULTURE",
    "lat": 41.607745,
    "lng": 41.624933,
    "image": "https://cdn.georgiantravelguide.com/storage/thumbnails/img-6311-4.jpg",
    "description": "Ethnographic Museum \"Borjgalo\"  is located in Adjara, Batumi, at 14 Sharashidze Street. The museum covers an area of 3000 square meters and has the appropriate",
    "id": 1191
  },
  {
    "name": "Europe Square",
    "region": "Tbilisi",
    "type": "OTHER",
    "lat": 41.691225,
    "lng": 44.811128,
    "image": "https://cdn.georgiantravelguide.com/storage/thumbnails/dji-0966-9.jpg",
    "description": "Europe Square is located in the southern part of Rike, between Metekhi and wine ascent, between Noe Jordania embankment and the Metekhi Bridge. A monument to Ge",
    "id": 1192
  },
  {
    "name": "Forest Mood",
    "region": "Samtskhe-Javakheti",
    "type": "ACCOMMODATION",
    "lat": 41.801621235944,
    "lng": 43.482524012125,
    "image": "https://cdn.georgiantravelguide.com/storage/thumbnails/254636497-108506978312225-651095-1.jpg",
    "description": "If you are looking for wooden eco-cottages, the complex \"Forest Mood\" offers a positive environment tailored to you as much as possible. A real paradise in Tsag",
    "id": 1193
  },
  {
    "name": "Forty St. Sebastian Martyrs Church",
    "region": "Tbilisi",
    "type": "CULTURE",
    "lat": 41.688899,
    "lng": 44.810215,
    "image": "https://cdn.georgiantravelguide.com/storage/thumbnails/dji-0755-5.jpg",
    "description": "Forty St. Sebastian Martyrs Church - located in Abanotubani, Tbilisi. Construction of the temple began in 2002, and in 2009, St. George's Day, November 23, the",
    "id": 1194
  },
  {
    "name": "Friend's Hut",
    "region": "Mtskheta-Mtianeti",
    "type": "ACCOMMODATION",
    "lat": 42.006956595317,
    "lng": 45.026993001738,
    "image": "https://cdn.georgiantravelguide.com/storage/thumbnails/240656484-228327115904201-173022-2.jpg",
    "description": "Friend's Hut is located near Sioni Reservoir. Beautiful views of the Sioni Reservoir and the forest unfold from the hut.The cottage can accommodate 4 people. Ou",
    "id": 1195
  },
  {
    "name": "Fudznari Virgin Mary Church",
    "region": "Mtskheta-Mtianeti",
    "type": "CULTURE",
    "lat": 42.14645706985158,
    "lng": 44.844493668201785,
    "image": "https://cdn.georgiantravelguide.com/storage/thumbnails/dji-0719-9.jpg",
    "description": "Fudznari Virgin Mary Church- this is the chapel, dated back to XIII century, which is located in eastern Georgia, on the side of Mtskheta-Mtianeti, in the munic",
    "id": 1196
  },
  {
    "name": "Gabzaruli Lake",
    "region": "Imereti",
    "type": "NATURE",
    "lat": 42.3791511660943,
    "lng": 42.58999764919281,
    "image": "https://cdn.georgiantravelguide.com/storage/thumbnails/img-6257-6.jpg",
    "description": "Gabzaruli\r\nLake - The natural monument is located in Imereti, Tskaltubo\r\nmunicipality, in the village Kumistavi, 166 meters above the sea level.\r\n\r\nThe length o",
    "id": 1197
  },
  {
    "name": "Garakha (Najagu) Fortress",
    "region": "Samegrelo",
    "type": "CULTURE",
    "lat": null,
    "lng": null,
    "image": "https://georgiantravelguide.com/img/default-image-1.svg",
    "description": "Garakha (Najagu) Fortress is located in the village of Garakha, Chkhorotsku Municipality, Samegrelo. This place was called Najaga in the past and Garakha Castle",
    "id": 1198
  },
  {
    "name": "Gardabani Nature Reserve",
    "region": "Kvemo Kartli",
    "type": "NATURE",
    "lat": 41.394556304848656,
    "lng": 45.06002157579124,
    "image": "https://georgiantravelguide.com/img/default-image-1.svg",
    "description": "Gardabani National Park – It is a national Park located on the border of Gardabani and Marneuli municipalities, close to the Azerbaijan border. The National Par",
    "id": 1199
  },
  {
    "name": "Gareja caved monasteries",
    "region": "Kakheti",
    "type": "CULTURE",
    "lat": 41.4608,
    "lng": 45.603129999999965,
    "image": "https://cdn.georgiantravelguide.com/storage/thumbnails/img-7157-4.jpg",
    "description": "Gareja caved monasteries - is a complex of monasteries in Gareja desert. It's located in Kakheti region.",
    "id": 1200
  },
  {
    "name": "Gega Waterfall",
    "region": "Abkhazia",
    "type": "NATURE",
    "lat": 43.435556,
    "lng": 40.442222,
    "image": "https://georgiantravelguide.com/img/default-image-1.svg",
    "description": "Gega Waterfall is located in Abkhazia, Gagra Municipality, on the right tributary of the river Bzyb - Gega, about 530 meters above sea level. The territory of A",
    "id": 1201
  },
  {
    "name": "Geguti Palace",
    "region": "Imereti",
    "type": "CULTURE",
    "lat": 42.19040024948935,
    "lng": 42.69113302230836,
    "image": "https://cdn.georgiantravelguide.com/storage/thumbnails/img-663011-4.jpg",
    "description": "Geguti Palace - The monument of the\r\nGeorgian architecture of the Feudal Age is located in Tskaltubo municipality,\r\nvillage Geguti, 7 km south of Kutaisi, on th",
    "id": 1202
  },
  {
    "name": "Gelati Monastery",
    "region": "Imereti",
    "type": "CULTURE",
    "lat": 42.29470699341788,
    "lng": 42.76805877685547,
    "image": "https://cdn.georgiantravelguide.com/storage/thumbnails/dji-0118-4.jpg",
    "description": "Gelati Monastery is located in the Imereti region, 11 km from the city of Kutaisi. The monastery was founded by David the Builder in 1106. We read in his will:",
    "id": 1203
  },
  {
    "name": "Georgian dance masterclass",
    "region": "Tbilisi",
    "type": "OTHER",
    "lat": 41.692244968094,
    "lng": 44.853766469028,
    "image": "https://cdn.georgiantravelguide.com/storage/thumbnails/fb-9.jpg",
    "description": "Join us in the 1 hour Georgian dance masterclass with a professional dancer from the most famous Georgian ensemble!\r\nYou will be taught Georgian typical dance A",
    "id": 1204
  },
  {
    "name": "Georgian Museum of Fine Arts",
    "region": "Tbilisi",
    "type": "CULTURE",
    "lat": 41.697233096665684,
    "lng": 44.79957826453643,
    "image": "https://cdn.georgiantravelguide.com/storage/thumbnails/img-1987-4.jpg",
    "description": "Georgian Museum of Fine Arts is located in the center of Tbilisi, on Rustaveli ave.The museum displays the private family collection of its founders Gia Jokhtab",
    "id": 1205
  },
  {
    "name": "Georgian National Astophysical Observatory of Abastumani",
    "region": "Samtskhe-Javakheti",
    "type": "NATURE",
    "lat": 41.754537,
    "lng": 42.820201,
    "image": "https://cdn.georgiantravelguide.com/storage/thumbnails/img-2923-4.jpg",
    "description": "Georgian National Astrophysical Observatory of Abastumani is situated on the side of Samtskhe-Javakheti, in the municipality of Adigeni, in the borough of Abast",
    "id": 1206
  },
  {
    "name": "Gergeti holy trinity church",
    "region": "Mtskheta-Mtianeti",
    "type": "CULTURE",
    "lat": 42.66250076856425,
    "lng": 44.6203615246186,
    "image": "https://cdn.georgiantravelguide.com/storage/thumbnails/dji-0570-14.jpg",
    "description": "Gergeti Trinity is located in Kazbegi municipality, 1 km from the village Gergeti, 2200 meters above sea level. It is the most popular tourist destination in Ge",
    "id": 1207
  },
  {
    "name": "Gergeti Woods",
    "region": "Mtskheta-Mtianeti",
    "type": "ACCOMMODATION",
    "lat": 42.663726698389,
    "lng": 44.631890853505,
    "image": "https://cdn.georgiantravelguide.com/storage/thumbnails/inbound1367739804064298174-2.jpg",
    "description": "Relax in Kazbegi surrounded by glaciers, amid beautiful views. Breathe the fresh air and enjoy nature.Gergeti Woods is located in Stepantsminda, in the village",
    "id": 1208
  },
  {
    "name": "Ghoubani „Ormotsni“",
    "region": "Kvemo Kartli",
    "type": "CULTURE",
    "lat": 41.629836,
    "lng": 44.699141,
    "image": "https://cdn.georgiantravelguide.com/storage/thumbnails/dji-0358a-4.jpg",
    "description": "Ghoubani „Ormotsni“ is a monument of XVI-XVII centuries, that is located in Kvemo Kartli, in Tetritskaro municipality, three kilometers away from the village of",
    "id": 1209
  },
  {
    "name": "Ghurghumela Lake",
    "region": "Imereti",
    "type": "NATURE",
    "lat": 42.260092,
    "lng": 43.265202,
    "image": "https://georgiantravelguide.com/img/default-image-1.svg",
    "description": "Ghurghumela Lake is located in the Imereti region, in the Chiatura Municipality, in the vicinity of the villages of Skindori and Tsinsopeli, in the gorge of the",
    "id": 1210
  },
  {
    "name": "Ghvirishi Waterfall",
    "region": "Lechkhumi",
    "type": "NATURE",
    "lat": 42.577778,
    "lng": 42.796944,
    "image": "https://cdn.georgiantravelguide.com/storage/thumbnails/dsc-0093-4.jpg",
    "description": "Ghvirishi Waterfall is located in Lechkhumi, near the village Kveda Ghvirishi, 625 meters from sea level. The waterfall descends from the high rock, in a very d",
    "id": 1211
  },
  {
    "name": "Giorgi Leonidze Garden",
    "region": "Tbilisi",
    "type": "NATURE",
    "lat": 41.699217,
    "lng": 44.801249,
    "image": "https://cdn.georgiantravelguide.com/storage/thumbnails/img-0996-9.jpg",
    "description": "Giorgi Leonidze Garden is located on Tabukashvili Street in Tbilisi. It is the lower part of the former Alexander Garden. Alexander Garden is divided into two p",
    "id": 1212
  },
  {
    "name": "Gldani Lake",
    "region": "Tbilisi",
    "type": "NATURE",
    "lat": 41.813158,
    "lng": 44.837657,
    "image": "https://cdn.georgiantravelguide.com/storage/thumbnails/dji-0929-4.jpg",
    "description": "Gldani Big Lake (Big Lake, White Lake) is a lake in the northern part of Tbilisi, on the left bank of the Mtkvari River, near the village of Gldani. Located at",
    "id": 1213
  },
  {
    "name": "Gldani Park",
    "region": "Tbilisi",
    "type": "NATURE",
    "lat": 41.803643,
    "lng": 44.824922,
    "image": "https://cdn.georgiantravelguide.com/storage/thumbnails/dji-0938-9.jpg",
    "description": "Gldani Park is one of the most diverse and well-equipped parks in Tbilisi. It is located on Omar Khizanishvili Street. There is an amphitheater, a fountain, chi",
    "id": 1214
  },
  {
    "name": "Goderdzi Alpine Garden",
    "region": "Adjara",
    "type": "NATURE",
    "lat": 41.625555546563625,
    "lng": 42.537963223745145,
    "image": "https://cdn.georgiantravelguide.com/storage/thumbnails/img-0835-4.jpg",
    "description": "Goderdzi Alpine Garden - is located in Adjara, Khulo Municipality, on the southern slope of the Adjara-Trialeti Ridge, near the resort \"Goderdzi\" on the territo",
    "id": 1215
  },
  {
    "name": "Goderdzi Petrified Forest  Natural  Monument",
    "region": "Samtskhe-Javakheti",
    "type": "NATURE",
    "lat": 41.642149,
    "lng": 42.493803,
    "image": "https://georgiantravelguide.com/img/default-image-1.svg",
    "description": "Goderdzi Petrified Forest is located on the border of Samtskhe and Adjara, in the territories of Adigeni and Khulo municipalities, on the eastern slope of Goder",
    "id": 1216
  },
  {
    "name": "Gogia Fortress",
    "region": "Samtskhe-Javakheti",
    "type": "CULTURE",
    "lat": 41.84141596044893,
    "lng": 43.376405239105225,
    "image": "https://cdn.georgiantravelguide.com/storage/thumbnails/dji-0426-4.jpg",
    "description": "Gogia Fortress is one of the historical monuments located on the territory of Borjomi. The fortress is located to the north-west of Borjomi and views the entire",
    "id": 1217
  },
  {
    "name": "Gokhnari Lake",
    "region": "Kvemo Kartli",
    "type": "NATURE",
    "lat": 41.665651,
    "lng": 44.272494,
    "image": "https://cdn.georgiantravelguide.com/storage/thumbnails/dji-0477-4.jpg",
    "description": "Gokhnari Lake is located in Kvemo Kartli region, Tetritskaro municipality, at 1752 meters above sea level. Lake Gokhnari is surrounded by fields. The green fiel",
    "id": 1218
  },
  {
    "name": "Gokhnari Liparit Orbeliani Church",
    "region": "Kvemo Kartli",
    "type": "CULTURE",
    "lat": 41.66595,
    "lng": 44.310542,
    "image": "https://cdn.georgiantravelguide.com/storage/thumbnails/gokhnaris-eklesia-xi-s-agebulia-19.jpg",
    "description": "Gokhnari Liparit Orbeliani Church is located in the Kvemo Kartli region, near Gokhnari village, Tetritskaro Municipality. It dates back to the second half of th",
    "id": 1219
  },
  {
    "name": "Gokhnari Lodovani",
    "region": "Kvemo Kartli",
    "type": "CULTURE",
    "lat": 41.641813,
    "lng": 44.307239,
    "image": "https://cdn.georgiantravelguide.com/storage/thumbnails/dji-0934-9.jpg",
    "description": "Gokhnari Lodovani is located in the Kvemo Kartli region, belongs to Tetritskaro municipality, near the village of Gokhnari, in the Algeti valley, 1500 meters ab",
    "id": 1220
  },
  {
    "name": "Gonio Fortress",
    "region": "Adjara",
    "type": "CULTURE",
    "lat": 41.573155,
    "lng": 41.572497,
    "image": "https://cdn.georgiantravelguide.com/storage/thumbnails/dji-0452-4.jpg",
    "description": "Gonio Fortress, Apsaros - (1st Century) Historical Fortress in Adjara, Khelvachauri Municipality, seaside resort Gonio. The Gonio-Apsaros archaeological-archite",
    "id": 1221
  },
  {
    "name": "Gori Fortress",
    "region": "Shida Kartli",
    "type": "CULTURE",
    "lat": 41.98620045041094,
    "lng": 44.107790757245276,
    "image": "https://cdn.georgiantravelguide.com/storage/thumbnails/dji-0235-4.jpg",
    "description": "Gori Fortress - a historical fortress in Kartli, in the center of Gori, on a high rocky hill. The ruins and archeological materials on the northern slope confir",
    "id": 1222
  },
  {
    "name": "Gorijvari",
    "region": "Shida Kartli",
    "type": "CULTURE",
    "lat": 41.975431,
    "lng": 44.084285,
    "image": "https://cdn.georgiantravelguide.com/storage/thumbnails/dsc-0010-24.jpg",
    "description": "St. George's Church in Gorijvari is located in Shida Kartli region, Gori municipality, in the village of Didi Gorijvari, on Gorijvari mountain. It is a monument",
    "id": 1223
  },
  {
    "name": "Green Monastery",
    "region": "Samtskhe-Javakheti",
    "type": "CULTURE",
    "lat": 41.81084,
    "lng": 43.30962999999997,
    "image": "https://cdn.georgiantravelguide.com/storage/thumbnails/dji-0109-4.jpg",
    "description": "Green Monastery (Chitakhevi St. George Monastery,)  is located in the middle of the deciduous forest near village Chitakhevi, just a few kilometers from Borjomi",
    "id": 1224
  },
  {
    "name": "Gremi",
    "region": "Kakheti",
    "type": "CULTURE",
    "lat": 42.002174866307456,
    "lng": 45.660037994384766,
    "image": "https://cdn.georgiantravelguide.com/storage/thumbnails/dji-0049-19.jpg",
    "description": "Gremi - the Georgian Orthodox Cathedral is located in Kakheti, in Kvareli municipality village, in the citadel of the east of Gremi, on a high hill. It was buil",
    "id": 1225
  },
  {
    "name": "Grigoleti Lake",
    "region": "Guria",
    "type": "NATURE",
    "lat": 42.027779,
    "lng": 41.746503,
    "image": "https://georgiantravelguide.com/img/default-image-1.svg",
    "description": "Grigoleti Lake is located on the territory of the Grigoleti resort, Lanchkhuti Municipality, Guria, quite close to the sea coast. The shores of the lake are cov",
    "id": 1226
  },
  {
    "name": "Gudarekhi Monastery",
    "region": "Kvemo Kartli",
    "type": "CULTURE",
    "lat": 41.59131387175272,
    "lng": 44.42831801192021,
    "image": "https://cdn.georgiantravelguide.com/storage/thumbnails/gudarekhis-tadzari-xiii-s-tetritsq-4.jpg",
    "description": "Gudarekhi Monastery is located Tetritskaro municipality, belongs to Kvemo Kartli region, close to the village of Gudarekhi. It dates back to XII-XIII centuries.",
    "id": 1227
  },
  {
    "name": "Gudarekhi Tower",
    "region": "Kvemo Kartli",
    "type": "CULTURE",
    "lat": 41.590283,
    "lng": 44.457181,
    "image": "https://cdn.georgiantravelguide.com/storage/thumbnails/img-0814-9.jpg",
    "description": "Gudarekhi Tower is located in the village of Gudarekhi, Tetritskaro Municipality, Kvemo Kartli region. It is a late medieval building and it has been a part of",
    "id": 1228
  },
  {
    "name": "Guesthouse & Cottage Shoda",
    "region": "Racha",
    "type": "ACCOMMODATION",
    "lat": 42.522399839827,
    "lng": 43.15152750314,
    "image": "https://cdn.georgiantravelguide.com/storage/thumbnails/192755755-333656564924359-718383-4.jpg",
    "description": "The cottage Shoda is located in the center of Ambrolauri.There are two rooms in the cottage (each for two people). Both rooms have the bathroom and kitchen equi",
    "id": 1229
  },
  {
    "name": "Gulebi Fortress",
    "region": "Adjara",
    "type": "CULTURE",
    "lat": 41.6289267,
    "lng": 41.9290729,
    "image": "https://georgiantravelguide.com/img/default-image-1.svg",
    "description": "Gulebi Fortress is located in Adjara, in the village of Gulebi, Keda Municipality. It dates back to the XII-XIII centuries. The castle is built in a convenient",
    "id": 1230
  },
  {
    "name": "Gurjaani Trinity Cathedral",
    "region": "Kakheti",
    "type": "CULTURE",
    "lat": 41.741404,
    "lng": 45.79698,
    "image": "https://cdn.georgiantravelguide.com/storage/thumbnails/dji-0387-9.jpg",
    "description": "Gurjaani Trinity Cathedral &nbsp;-&nbsp; is located in the center of Gurjaani, in Kakheti region. It was built in 2012.&nbsp;",
    "id": 1231
  },
  {
    "name": "Gvalashara Canyon",
    "region": "Samegrelo",
    "type": "NATURE",
    "lat": 42.661064,
    "lng": 42.230969,
    "image": "https://georgiantravelguide.com/img/default-image-1.svg",
    "description": "Gvalashara Canyon is located in Samegrelo, Chkhorotsku Municipality, near the village of Mukhuri, in the gorge of the river Gvalashara. It attracts many lovers",
    "id": 1232
  },
  {
    "name": "Gveleti Waterfall",
    "region": "Mtskheta-Mtianeti",
    "type": "NATURE",
    "lat": null,
    "lng": null,
    "image": "https://cdn.georgiantravelguide.com/storage/thumbnails/gveleti-waterfall-34.jpg",
    "description": "Gveleti waterfall, which can be translated as the Snake’s Waterfall, is one of the most splendid waterfalls in Georgia. It is located in Kazbegi, in the Gveleti",
    "id": 1233
  },